address,take_out,business_id,categories,latitude,longitude,name,review_count,stars,star_count,dates
1012 State St,True,-3AooxIkg38UyUdlz5oXdw,"{'Italian', 'Nightlife', 'Event Planning & Services', 'Caterers', 'Bars', 'Restaurants'}",34.421931,-119.7021852,Chase Restaurant,436,3.0,"[115, 56, 67, 62, 144]","['2021-12-28 02:40:57', '2021-11-29 16:04:16', '2021-10-01 02:33:33', '2021-12-29 02:04:15', '2022-01-05 05:43:43']"
2036 Cliff Dr,True,-6jvfSJGprbfBD2QrS9zQw,"{'Food', 'Grocery'}",34.4025384,-119.724894,Mesa Produce,19,5.0,"[0, 0, 0, 0, 19]","[0, 0, 0, 0, '2021-10-24 16:08:48']"
1417 San Andres St,True,-ALqLSTzkGDMscHdxA1NgA,"{'Mexican', 'Restaurants'}",34.418221,-119.7157951,Su Casa Fresh Mexican Grill,29,4.5,"[0, 2, 3, 7, 17]","[0, '2013-01-24 23:23:09', '2016-08-13 05:59:35', '2019-10-27 10:17:42', '2020-07-29 04:39:12']"
1905 Cliff Dr,True,-BdYhP-12elmFV7oB1iv4A,"{'Gastropubs', 'Nightlife', 'American (New)', 'Cocktail Bars', 'American (Traditional)', 'Beer Bar', 'Bars', 'Restaurants'}",34.4013817,-119.7224721,Corner Tap Room,41,5.0,"[0, 0, 2, 5, 37]","[0, 0, '2021-10-21 03:56:27', '2021-10-30 15:46:13', '2021-12-24 20:48:52']"
31 W Carrillo St,True,-FM4CxOg4XXmX_Ebky_SiQ,"{'Breakfast & Brunch', 'Nightlife', 'American (New)', 'American (Traditional)', 'Bars', 'Restaurants'}",34.4203606,-119.7024752,Finch & Fork,1405,4.0,"[63, 82, 132, 379, 778]","['2021-11-21 02:44:59', '2021-06-21 00:01:19', '2021-12-07 23:51:31', '2021-11-14 04:40:43', '2022-01-09 19:18:59']"
2026 De La Vina St,True,-H-fZonTLitwHFY_PLAIjA,"{'Pizza', 'Restaurants'}",34.4295503,-119.7176051,Taffy's Pizza,192,4.0,"[26, 18, 12, 45, 97]","['2022-01-15 01:36:56', '2021-06-10 05:15:12', '2021-10-15 02:36:58', '2021-10-27 14:56:15', '2022-01-03 02:41:03']"
718 State St,True,-I7M6l0h46VdiN09Y1NUZw,"{'Gastropubs', 'Indian', 'Gluten-Free', 'Vegan', 'Restaurants'}",34.4192388,-119.6983869,Apna Indian Kitchen,246,4.5,"[10, 7, 8, 22, 208]","['2021-09-19 04:30:53', '2021-06-24 19:30:00', '2021-09-04 14:31:47', '2021-11-26 00:02:14', '2022-01-16 14:45:22']"
3126 State St,True,-NXRuUsazxXZZ_OHwmtYtw,"{'Sports Bars', 'Tacos', 'Beer', 'Pizza', 'Karaoke', 'Food', 'Mexican', 'Nightlife', 'American (New)', 'Wine & Spirits', 'Bars', 'Lounges', 'Restaurants'}",34.4406064,-119.7321808,Uptown Bar & Lounge,138,4.0,"[18, 9, 15, 30, 68]","['2021-06-11 03:03:08', '2021-12-28 23:11:32', '2019-03-07 00:12:25', '2021-08-19 05:55:04', '2021-10-24 15:26:28']"
1201 State St,True,-TjT3y-Glfnbt6LbKETAYg,"{'Breakfast & Brunch', 'Vegetarian', 'Seafood', 'Venues & Event Spaces', 'Nightlife', 'Event Planning & Services', 'American (New)', 'American (Traditional)', 'Bars', 'Restaurants'}",34.4233579,-119.7047765,Benchmark Eatery,544,4.0,"[44, 51, 80, 164, 222]","['2021-12-20 22:29:32', '2021-09-27 19:36:07', '2021-11-23 15:39:06', '2022-01-02 21:02:49', '2021-11-29 20:45:43']"
"137 Anacapa St, Ste C",True,-e8RwknT5szoLk9uBZjzcw,"{'Wine Tasting Room', 'Beer', 'Arts & Entertainment', 'Food', 'Nightlife', 'Wine & Spirits', 'Wine Bars', 'Bars', 'Wineries'}",34.4148148,-119.6905632,Riverbench Santa Barbara Tasting Room,121,4.0,"[10, 5, 13, 29, 65]","['2021-08-21 14:45:30', '2019-01-19 22:45:42', '2021-09-19 17:59:00', '2021-09-07 15:23:59', '2021-11-03 00:37:12']"
"315 Meigs Rd, Ste I",True,-fxH1XplVLVtWg2ZJWwRdA,"{'Sandwiches', 'American (New)', 'Restaurants'}",34.400863,-119.722647,Sam's To Go,87,4.5,"[5, 1, 4, 15, 63]","['2020-01-15 04:46:15', '2021-11-28 21:43:45', '2021-01-24 23:32:04', '2021-08-03 08:13:22', '2022-01-03 00:05:08']"
3890 La Cumbre Plz Ln,True,-ipZBVF9nWm1vzrvQ3444A,"{'Burgers', 'Restaurants'}",34.4383258245,-119.7496509558,Habit Burger Grill,131,4.0,"[12, 12, 15, 45, 52]","['2021-08-21 04:08:24', '2021-05-30 03:50:35', '2021-03-11 17:25:10', '2021-09-20 02:40:40', '2022-01-12 23:20:14']"
528 Anacapa St,True,-kY_HDP7IMvGl-kBIZVU4A,"{'Coffee & Tea', 'Food', 'Coffee Roasteries'}",34.4189939,-119.6950684,Dune Coffee Roasters - Anacapa,320,4.0,"[23, 24, 25, 82, 176]","['2020-10-25 23:01:13', '2021-04-02 02:31:29', '2021-12-08 05:03:29', '2021-09-08 20:06:36', '2021-12-03 18:27:47']"
2710 De La Vina St,True,-kfHz1kimX62QEceFkkB_g,"{'Sushi Bars', 'Japanese', 'Restaurants'}",34.4359425,-119.7253428,Edomasa,406,3.5,"[45, 38, 61, 145, 124]","['2021-03-07 03:08:28', '2021-09-26 15:51:37', '2021-09-26 03:06:14', '2020-12-23 03:08:47', '2022-01-18 22:12:47']"
"1324 State St, Ste N, Arlington Plaza",True,-loV4cB2Uh9TCltTRgGzWQ,"{'Breakfast & Brunch', 'Desserts', 'Sandwiches', 'Coffee & Tea', 'Food', 'French', 'Bakeries', 'Salad', 'Restaurants'}",34.4253682196,-119.7059071571,Renaud's Patisserie & Bistro,379,4.0,"[22, 15, 37, 99, 213]","['2021-12-27 02:38:52', '2021-06-04 20:14:01', '2021-07-24 21:53:19', '2022-01-16 01:38:09', '2021-10-16 20:09:28']"
605 Paseo Nuevo,True,-nwNPb3G-0L95igrhkvMtw,"{'Fast Food', 'Chinese', 'Restaurants'}",34.4187220772,-119.7001659,Panda Express,46,2.5,"[16, 10, 9, 4, 10]","['2022-01-08 16:53:48', '2021-08-13 16:33:02', '2021-07-19 23:22:12', '2021-08-02 04:20:03', '2021-10-13 04:34:38']"
10 E Carrillo St,True,-r6nmLB5Vi2TLQCxh0_dtw,"{'Delis', 'Salad', 'Sandwiches', 'Restaurants'}",34.4217021,-119.7013299,South Coast Deli- Carrillo,215,4.0,"[18, 11, 10, 46, 136]","['2021-12-18 00:09:01', '2020-02-29 00:02:18', '2021-06-27 04:48:51', '2021-03-13 17:50:53', '2021-07-21 19:22:32']"
116 Santa Barbara St,True,-ujBP1Dw0j1-Ffaz97-LXQ,"{'Beer', 'Arts & Entertainment', 'Food', 'Nightlife', 'Pubs', 'Beer Bar', 'Wine & Spirits', 'Kombucha', 'Bars', 'Wineries'}",34.4157471,-119.6884801,Lama Dog Tap Room,238,4.0,"[19, 16, 16, 70, 122]","['2021-07-11 05:31:26', '2020-08-24 18:38:47', '2021-08-08 21:49:56', '2021-12-01 19:04:15', '2021-09-13 19:05:04']"
207 W Anapamu St,True,-veGIq3SvwFMi5ZwMSIqkg,"{'Delis', 'Beer', 'Convenience Stores', 'Food', 'Grocery', 'Wine & Spirits', 'Restaurants'}",34.420862,-119.706714,Red Sand Market and Deli,11,4.5,"[1, 1, 0, 1, 8]","['2015-09-06 20:50:01', '2017-03-11 20:40:20', 0, '2013-11-27 06:30:14', '2014-07-04 19:26:01']"
1282 Coast Village Rd,False,011vcXzrmB86rXoVwCJiJw,"{'Pharmacy', 'Convenience Stores', 'Drugstores', 'Shopping', 'Food', 'Health & Medical'}",34.4218,-119.6409120667,CVS Pharmacy,23,2.0,"[15, 1, 2, 2, 4]","['2021-12-20 04:07:37', '2018-07-05 13:28:22', '2016-10-28 21:30:28', '2020-02-16 15:34:19', '2020-12-22 18:47:53']"
1936 State St,True,04Ss49U_QKYLotcJMAH8cA,"{'Restaurants', 'Vegan', 'Sandwiches', 'Vegetarian'}",34.430741422,-119.7142658272,Ike’s Love & Sandwiches,97,4.0,"[10, 12, 8, 13, 57]","['2020-10-02 00:54:57', '2020-08-03 21:29:18', '2021-01-17 21:53:43', '2021-04-17 20:15:23', '2021-12-19 21:04:24']"
"1150 Coast Village Rd, Ste E",True,0RxU5OglQyPVtLKC1LPgsA,"{'Breakfast & Brunch', 'Coffee & Tea', 'Food', 'French', 'Bakeries', 'Restaurants'}",34.4214078817,-119.64647306,Bree'osh,497,4.5,"[12, 15, 25, 84, 375]","['2021-07-07 18:08:05', '2021-11-16 16:30:43', '2021-07-11 11:44:23', '2021-12-18 17:45:27', '2022-01-19 00:02:44']"
29 E Cabrillo Blvd,True,0ac5lGA_0wdKDnib3y59Xg,"{'Nightlife', 'Mexican', 'Cocktail Bars', 'Bars', 'Restaurants'}",34.4131917395,-119.688437903,Flor De Maiz,434,4.0,"[36, 25, 45, 49, 285]","['2021-12-07 01:35:41', '2021-12-08 05:32:25', '2021-12-30 23:29:24', '2022-01-18 07:26:10', '2022-01-15 00:42:54']"
235 W Montecito St,False,0c28ysQJ_M1fVToTFV-FWQ,"{'Vegetarian', 'Sandwiches', 'Chicken Wings', 'Salad', 'Restaurants'}",34.4117091,-119.6960527,Wingman Rodeo - Montecito Street,44,4.0,"[3, 3, 8, 6, 24]","['2021-10-10 20:15:55', '2021-09-14 05:40:44', '2021-12-06 01:30:26', '2021-10-15 01:22:38', '2021-12-23 19:21:03']"
1812 Cliff Dr,False,0cWnURpfrb4MqKSzyVN4SQ,"{'Tapas Bars', 'Restaurants'}",34.40171,-119.7212025,Alcazar Tapas Bar,152,4.0,"[4, 12, 15, 41, 83]","['2012-08-15 21:57:59', '2017-09-06 19:00:20', '2021-11-01 21:41:41', '2021-08-03 21:41:43', '2022-01-19 03:29:02']"
1316 State St,True,0iHHsSqphxrBWWecYEJcuQ,"{'Coffee & Tea', 'Food'}",34.4248531,-119.7060883,Cajé Coffee - Arlington St,72,4.5,"[0, 1, 6, 11, 54]","[0, '2021-04-28 19:20:55', '2022-01-19 13:45:39', '2021-12-18 19:51:53', '2022-01-16 02:22:58']"
"4151 Foothill Rd Building A Main Fl, Bldg A",True,0iLgVQpBeIYYwQZIblTTVw,"{'Cafeteria', 'Cafes', 'Restaurants'}",34.4510957997,-119.7600908624,Cafe 154,10,4.0,"[1, 0, 2, 4, 3]","['2017-05-11 19:23:59', 0, '2018-08-14 17:56:14', '2018-10-05 19:48:19', '2019-08-22 16:05:29']"
800 Alvarado Pl,True,0jpFptAehZhLl3nkhHDanA,"{'Hotels', 'Hotels & Travel', 'Event Planning & Services', 'Restaurants'}",34.4388519,-119.7043733,Belmond El Encanto,331,4.0,"[46, 31, 24, 44, 203]","['2022-01-01 19:46:16', '2021-10-26 02:13:10', '2019-09-19 05:36:06', '2021-10-02 00:12:33', '2021-10-31 00:40:02']"
1260 Channel Drive,False,0m0SQSIzM9WcDhJ7UEVCLQ,"{'Tapas/Small Plates', 'Nightlife', 'Tapas Bars', 'Bars', 'Lounges', 'Restaurants'}",34.4172489,-119.6418849,Ty Lounge,32,4.0,"[1, 2, 4, 8, 17]","['2019-07-15 05:24:15', '2018-07-13 01:20:49', '2019-11-30 01:49:08', '2020-02-11 18:21:04', '2020-02-14 01:37:43']"
5995 Stagecoach Rd,True,0qu0fNTOsSmuREYVIMPuIQ,"{'Nightlife', 'American (Traditional)', 'Bars', 'Restaurants'}",34.5216257926,-119.8405629067,Cold Spring Tavern,1018,4.5,"[49, 35, 92, 256, 604]","['2022-01-09 18:06:34', '2021-11-06 18:23:17', '2021-10-10 23:43:57', '2022-01-17 05:12:36', '2022-01-09 01:31:39']"
33 Parker Way,True,0tbscjPg4IzURekIn_CJ1Q,"{'Local Flavor', 'Food', 'Juice Bars & Smoothies'}",34.4144582,-119.6944402,Juice Ranch,150,4.0,"[14, 8, 15, 24, 92]","['2022-01-12 01:21:01', '2022-01-12 01:40:44', '2022-01-12 06:21:20', '2021-11-20 23:28:51', '2021-12-25 17:41:57']"
3404 State St,True,12Gc4OFQ-WAW0fAk2hRZuQ,"{'Food', 'Donuts', 'Pop-Up Restaurants', 'Restaurants'}",34.4406266,-119.7367796,Kin Bakeshop,25,5.0,"[0, 0, 0, 0, 25]","[0, 0, 0, 0, '2021-03-14 02:06:26']"
4067 State St,False,13UbOVDFdxloxaient5XWA,"{'Party Bus Rentals', 'Transportation', 'Limos', 'Wedding Planning', 'Party & Event Planning', 'Arts & Entertainment', 'Tours', 'Food', 'Wine Tours', 'Event Planning & Services', 'Local Flavor', 'Hotels & Travel', 'Wineries'}",34.4393777962,-119.7583532456,Jump On The School Bus,175,5.0,"[0, 1, 1, 6, 170]","[0, '2016-08-10 19:15:25', '2016-11-15 02:36:59', '2015-12-17 15:33:00', '2021-11-08 20:21:14']"
209 S Milpas St,False,19Gx6T0v_GZW2je2J_mqOg,"{'Floral Designers', 'Candy Stores', 'Florists', 'Specialty Food', 'Shopping', 'Food', 'Event Planning & Services', 'Flowers & Gifts'}",34.4196404,-119.6757739931,Lily's Flowers and Fruity Florets,42,3.5,"[15, 4, 1, 3, 20]","['2022-01-03 21:16:56', '2019-02-19 22:02:38', '2017-05-10 03:49:22', '2019-06-12 17:36:23', '2021-12-29 21:18:06']"
3514 State St,True,1Du1NruqJwxnzgEUHc42Jw,"{'Diners', 'Breakfast & Brunch', 'American (New)', 'Restaurants'}",34.4406561,-119.7387809,SB Sunshine Cafe,208,4.5,"[8, 7, 11, 24, 163]","['2021-11-17 22:15:08', '2020-06-16 23:26:49', '2021-12-29 02:11:24', '2022-01-02 16:51:01', '2022-01-07 17:56:52']"
1305 State St,True,1U8Kt44FIkC7RnJsNjaMTA,"{'Beer', 'Sushi Bars', 'Food', 'Wine & Spirits', 'Japanese', 'Restaurants'}",34.4244063718,-119.706060133,Teru Japanese Cuisine,34,4.5,"[0, 4, 0, 1, 30]","[0, '2021-11-28 02:41:02', 0, '2021-01-16 21:37:07', '2022-01-08 02:19:15']"
3401 State St,True,1XoX4eLYyfK4b8l_TqiPUg,"{'Food', 'Specialty Food', 'Olive Oil'}",34.4401074,-119.736727,il Fustino,28,4.5,"[2, 2, 0, 5, 19]","['2022-01-05 17:21:30', '2020-08-08 04:01:00', 0, '2013-11-19 19:38:50', '2020-07-04 17:23:54']"
"3987 State St, Ste B",True,1kVnChI4aqsPw9i2PVqkkw,"{'Breakfast & Brunch', 'Italian', 'Food', 'Bakeries', 'American (Traditional)', 'Restaurants'}",34.4394181202,-119.7514181468,Fresco Cafe,278,4.0,"[29, 22, 25, 81, 125]","['2021-12-31 02:24:26', '2020-10-28 00:26:49', '2021-08-02 21:09:55', '2021-11-18 23:24:55', '2022-01-13 13:09:25']"
"1940 Cliff Dr, Ste B-13",True,1lwulkAD5htni3rbHW8oeg,"{'Fast Food', 'Salad', 'Sandwiches', 'Restaurants'}",34.402151,-119.7225483,Subway,11,3.0,"[5, 1, 1, 1, 4]","['2020-05-11 02:07:36', '2014-03-10 18:56:50', '2020-03-02 20:05:55', '2016-04-12 04:01:30', '2019-07-10 01:49:07']"
401 E Haley St,True,1oGCzoCC6HnQWpdK9cCP0g,"{'Coffee Roasteries', 'Food', 'Coffee & Tea'}",34.4212987,-119.6910125,Low Pigeon Coffee Roasters,93,5.0,"[0, 2, 3, 10, 79]","[0, '2021-06-28 04:57:46', '2021-03-28 17:09:49', '2021-12-26 17:48:06', '2021-12-29 23:20:50']"
213 Paseo Nuevo,True,1pd4VYTww1UWDVai2r2RKg,"{'Food', 'Bubble Tea', 'Juice Bars & Smoothies'}",34.4189482,-119.69974,805 Boba,248,3.0,"[53, 51, 34, 28, 88]","['2021-12-15 22:36:49', '2022-01-16 02:12:16', '2022-01-16 23:57:01', '2022-01-12 22:50:00', '2022-01-15 22:20:17']"
915 Garden St,False,1wvYBjX6radqmb_k0Fv_Ug,"{'Hotels', 'Cafes', 'Event Planning & Services', 'Hotels & Travel', 'Restaurants'}",34.4239925,-119.6979304,Palihouse Santa Barbara,7,4.0,"[0, 1, 1, 1, 4]","[0, '2022-01-10 05:52:52', '2021-05-30 05:04:51', '2021-06-03 21:25:51', '2022-01-09 18:17:14']"
116 E Yanonali St,False,1xsBRB203LiYLcC3mktfdA,"{'Wine Tasting Room', 'Beer', 'Arts & Entertainment', 'Food', 'Nightlife', 'Local Flavor', 'Wine & Spirits', 'Wine Bars', 'Bars', 'Wineries'}",34.4152803,-119.6899095,Kunin Wines,168,4.0,"[12, 15, 21, 53, 70]","['2021-07-18 00:15:51', '2021-05-17 02:06:49', '2021-05-12 21:54:08', '2020-09-27 19:54:10', '2021-09-14 04:09:41']"
604 Santa Barbara St,True,23OxrUaCvvVrwSa1z3xG-w,"{'Australian', 'Breakfast & Brunch', 'Food', 'Bakeries', 'Restaurants'}",34.4202441,-119.6946664,Recipes Bakery & Gifts: An Australian Coffee House,128,4.5,"[7, 6, 10, 20, 88]","['2019-05-21 17:48:12', '2019-11-29 04:47:20', '2020-09-05 17:33:02', '2019-06-30 22:58:12', '2021-09-26 01:45:54']"
141-153 Harbor Way,False,2GiqDUNiTt5__ixRbzbqFw,"{'Festivals', 'Arts & Crafts', 'Arts & Entertainment', 'Shopping', 'Seafood', 'Food', 'Local Flavor', 'Restaurants'}",34.4035193575,-119.6938347816,Santa Barbara Harbor & Seafood Festival,22,4.5,"[0, 1, 1, 8, 12]","[0, '2019-10-14 01:18:58', '2012-11-08 05:24:01', '2021-09-08 22:31:44', '2019-10-15 00:23:03']"
"417 Santa Barbara St, Ste A-6",True,2NcOysjkx3eFi3xo8ndAUA,"{'Beer', 'Arts & Entertainment', 'Food', 'Wine & Spirits', 'Wineries'}",34.418152,-119.6927,Renegade Wines,11,5.0,"[0, 0, 0, 1, 11]","[0, 0, 0, '2011-09-06 05:22:33', '2022-01-03 00:37:24']"
138 S Salinas St,True,2OJqIloZMAZXCW3uzF8jJw,"{'Imported Food', 'Ethnic Food', 'Specialty Food', 'Food', 'Mexican', 'Restaurants'}",34.4249436,-119.6711303,El Sitio,37,4.0,"[3, 4, 5, 12, 14]","['2021-07-29 02:20:20', '2017-07-25 07:41:33', '2021-01-14 05:47:34', '2019-08-26 05:20:03', '2021-08-24 19:43:52']"
"3987 State St, Ste D",True,2QaNH5-RCRNIkToUOBc22Q,"{'Fast Food', 'Mexican', 'Tex-Mex', 'Restaurants'}",34.4395144,-119.7516314,La Salsa Fresh Mexican Grill,26,4.0,"[2, 2, 0, 9, 13]","['2021-04-03 20:06:27', '2020-12-31 02:52:16', 0, '2020-10-04 23:01:39', '2021-08-04 04:34:56']"
4898 Hollister Ave,True,2YnQAJdeFrcgPa8MqIYcDg,"{'Breakfast & Brunch', 'Cafes', 'Nightlife', 'Wine Bars', 'American (Traditional)', 'Bars', 'Restaurants'}",34.4366192418,-119.7917363642,Cody's Cafe,294,3.5,"[36, 28, 45, 90, 109]","['2022-01-13 18:16:27', '2021-09-06 19:29:22', '2022-01-01 21:59:43', '2022-01-18 01:01:30', '2022-01-07 17:10:13']"
"811 State St, Ste B",True,2bxZhBk8JZkJ1GqfTB0cUQ,"{'Italian', 'Food Delivery Services', 'Food', 'Event Planning & Services', 'American (New)', 'Caterers', 'Restaurants'}",34.4195303,-119.7001825,California Pasta,287,3.5,"[45, 23, 34, 85, 105]","['2021-12-24 21:48:07', '2020-11-08 23:02:52', '2021-08-09 07:07:11', '2022-01-04 04:01:42', '2021-11-09 04:30:32']"
2000 Cliff Dr,True,2cRTgUdOx7PNOQ6C0nnnug,"{'Food', 'Donuts', 'Bagels'}",34.402491,-119.723481,Bagel Market Cafe,79,3.5,"[14, 5, 7, 19, 35]","['2021-12-12 18:02:41', '2020-10-18 18:54:19', '2021-10-03 01:05:53', '2021-05-22 17:19:02', '2022-01-12 00:44:07']"
1435 San Andres St,True,2h3SEwpI6fiuTF9mcN1S_Q,"{'Mexican', 'Restaurants'}",34.4185582,-119.7161005,El Zarape,86,4.0,"[6, 9, 3, 18, 51]","['2020-10-27 03:43:37', '2020-09-06 18:50:35', '2017-08-15 00:00:20', '2021-09-25 15:17:44', '2021-12-22 20:42:21']"
1114 State St,True,2l-spLLGUzRiZg8dF623Nw,"{'Gastropubs', 'Sports Bars', 'Nightlife', 'Pubs', 'Beer Bar', 'Cocktail Bars', 'Tapas Bars', 'Bars', 'Restaurants'}",34.4228222462,-119.7034015551,1114 Sports Bar & Games,144,4.0,"[18, 11, 14, 22, 81]","['2022-01-16 21:58:00', '2020-10-06 01:09:36', '2022-01-18 03:33:43', '2021-07-23 20:33:20', '2021-12-13 02:19:51']"
1150 Coast Village Rd,True,2nF2syYoD5VBFk01le6NkA,"{'Delis', 'Restaurants'}",34.4213976639,-119.646426848,Montecito Deli & Catering,31,4.5,"[0, 3, 2, 10, 17]","[0, '2017-06-17 20:19:10', '2018-11-02 04:12:37', '2021-07-18 01:14:14', '2021-07-10 19:03:16']"
221 Stearns Wharf,True,2pBNVsJo3a3CPbInUu9lvQ,"{'Breakfast & Brunch', 'Fish & Chips', 'Seafood', 'Fast Food', 'Food', 'Coffee & Tea', 'American (Traditional)', 'Restaurants'}",34.4097583,-119.6853378,Char West,134,3.0,"[40, 23, 21, 21, 29]","['2021-12-26 04:52:35', '2021-05-28 20:10:13', '2021-04-17 21:50:22', '2021-11-09 18:16:50', '2021-10-17 17:55:00']"
1118 E Cabrillo Blvd,False,304FY8qhcOpm9SIkrzmhoQ,"{'Restaurants', 'Salad', 'Burgers', 'American (New)'}",34.4170185,-119.6689747,Reunion Kitchen + Drink,61,4.5,"[0, 1, 5, 10, 46]","[0, '2022-01-08 04:51:46', '2022-01-02 21:13:46', '2022-01-19 07:39:27', '2022-01-17 02:37:43']"
331 Motor Way,True,34Eqv8jXgxg_EEwcsNgeeg,"{'Breakfast & Brunch', 'Health Markets', 'Specialty Food', 'Coffee & Tea', 'Food', 'Juice Bars & Smoothies', 'American (New)', 'Ice Cream & Frozen Yogurt', 'Restaurants'}",34.4151137,-119.6944966,Backyard Bowls,659,4.0,"[38, 25, 46, 183, 378]","['2021-05-28 20:08:23', '2021-08-01 18:21:04', '2021-12-05 16:42:33', '2021-12-29 18:50:25', '2021-12-18 12:30:27']"
601 W De La Guerra St,True,34PSBuVNmEguXTwmyH5Tcg,"{'Convenience Stores', 'Food', 'Grocery'}",34.4130646,-119.7060657,Guadalajara Market,11,2.5,"[5, 2, 0, 0, 4]","['2020-06-18 15:19:18', '2019-03-12 19:19:15', 0, 0, '2021-12-26 19:46:42']"
121 E Yanonali St,False,3DSgJFIaXjdknbZn3LSnPQ,"{'Coffee Roasteries', 'Food', 'Coffee & Tea'}",34.4158054,-119.689906,Dart Coffee Co,123,4.5,"[4, 4, 10, 23, 84]","['2021-11-06 19:25:51', '2021-10-20 14:46:12', '2021-11-16 20:42:59', '2021-10-13 02:45:39', '2021-12-29 03:45:22']"
"3815 State St, Ste G131",True,3Wy21heeDm8h2tSZfcj6OA,"{'Breakfast & Brunch', 'Beer', 'Wine Bars', 'Seafood', 'Food', 'Nightlife', 'American (New)', 'Cocktail Bars', 'Wine & Spirits', 'Bars', 'Restaurants'}",34.43884928,-119.7481642957,Lure Fish House,1453,4.5,"[44, 67, 109, 334, 980]","['2021-12-16 09:05:42', '2022-01-06 18:52:31', '2021-12-21 12:28:22', '2022-01-07 19:12:46', '2022-01-13 18:50:44']"
3629 State St,False,3fpAmsSuEFNF29UUPpgwlw,"{'Donuts', 'Bubble Tea', 'Coffee & Tea', 'Food', 'Bagels', 'Restaurants'}",34.4401969,-119.7414014,Spudnuts & Bagels,292,4.5,"[6, 2, 10, 31, 251]","['2020-02-19 01:27:15', '2018-05-28 06:20:35', '2021-04-01 06:52:15', '2021-08-27 03:16:17', '2021-11-27 20:34:41']"
418 State St,True,3rzlcCvPUJ56jvYWl7iGvA,"{'Restaurants', 'Vegan', 'American (New)'}",34.416536,-119.694577,Modern Times Kitchen,54,4.5,"[2, 2, 0, 9, 41]","['2021-08-17 19:59:38', '2021-09-13 00:16:46', 0, '2021-12-05 22:07:11', '2022-01-04 02:24:26']"
15 East Figueroa St,True,3tvi-OJ_-iK1ecjzSaH-oA,"{'Breakfast & Brunch', 'Desserts', 'Coffee & Tea', 'Food', 'Bakeries', 'Donuts', 'Restaurants'}",34.4233020318,-119.7028496606,Hook And Press Donuts,217,4.5,"[4, 11, 24, 45, 139]","['2021-07-15 18:09:02', '2021-09-08 23:22:27', '2021-11-16 20:33:39', '2021-07-24 21:08:54', '2022-01-12 00:02:54']"
401 W Montecito St,False,3yI-WR2x322OvcGVUOSUjg,"{'Convenience Stores', 'Car Wash', 'Food', 'Auto Detailing', 'Automotive', 'Food Trucks', 'Gas Stations'}",34.410332,-119.6973313,Chevron,43,2.5,"[24, 4, 2, 6, 9]","['2021-05-01 04:12:47', '2016-05-03 06:15:56', '2021-02-21 21:03:11', '2015-09-08 17:37:19', '2021-11-16 21:06:27']"
"220 W Carrillo St, Ste 1",True,425FOxIzHPcOB0niWc6-1w,"{'Food', 'Donuts', 'Restaurants'}",34.4189876171,-119.7047993817,Spudnuts Donuts,100,3.5,"[15, 11, 14, 29, 31]","['2021-05-10 19:51:56', '2018-11-21 00:03:09', '2019-08-07 01:30:22', '2021-10-27 01:50:28', '2021-09-30 23:32:42']"
2220 Bath St,True,45D7B9CqiUTTPUFcqmLx5Q,"{'Farmers Market', 'Breakfast & Brunch', 'Cafes', 'Fast Food', 'Food', 'Nightlife', 'American (New)', 'Wine Bars', 'Bars', 'Restaurants'}",34.4303146,-119.720935,Live Oak Cafe,263,4.5,"[10, 13, 16, 70, 158]","['2020-08-16 20:12:18', '2021-05-04 20:51:44', '2020-11-03 00:58:11', '2021-08-20 21:57:36', '2021-12-21 19:03:34']"
38 W Victoria St,True,49Sy1N3MTnK6Eslh1tgZQQ,"{'Pop-Up Restaurants', 'Restaurants'}",34.4236075,-119.7070539,Matty's Hot Chicken,12,3.5,"[1, 1, 4, 1, 5]","['2021-05-23 22:47:10', '2021-05-23 22:24:58', '2021-09-04 23:56:56', '2021-12-27 05:11:29', '2022-01-17 02:01:08']"
"11 W Victoria St, Ste 21",True,4D7QDfPOsSPfKxBi3gs_qQ,"{'Italian', 'Pizza', 'Nightlife', 'Bars', 'Restaurants'}",34.4238136,-119.7060451,Olio Pizzeria,622,4.0,"[43, 49, 63, 170, 315]","['2022-01-16 03:41:54', '2021-12-18 05:42:14', '2021-12-02 20:58:28', '2021-07-24 15:36:07', '2021-11-28 04:44:11']"
702 Anacapa St,True,4FdsX3MbkcdBRAr1aymF6A,"{'Breakfast & Brunch', 'Chicken Shop', 'Desserts', 'Food', 'Mexican', 'Nightlife', 'Cocktail Bars', 'Barbeque', 'Bars', 'Restaurants'}",34.4200396,-119.6968561,La Paloma Cafe,77,4.5,"[5, 3, 2, 10, 57]","['2021-12-26 07:52:42', '2021-08-21 18:51:39', '2021-11-10 21:05:45', '2022-01-16 20:56:15', '2021-12-07 08:22:47']"
,False,4_JJl_mlIEI9Ui9rOHHwMA,"{'Active Life', 'Arts & Entertainment', 'Horseback Riding', 'Tours', 'Food', 'Wine Tours', 'Hotels & Travel', 'Wineries'}",34.420334,-119.7107494,Wine & Horse Tours,7,3.5,"[2, 0, 0, 3, 2]","['2019-01-17 15:51:56', 0, 0, '2021-09-18 00:45:18', '2015-03-27 21:22:33']"
30 El Paseo,False,4dF9bWpFOKGiFmL3tFmvbQ,"{'Food', 'Arts & Entertainment', 'Wine Tasting Room', 'Wineries'}",34.4201902,-119.6996819,Happy Canyon Vineyard,69,4.0,"[8, 1, 6, 5, 49]","['2021-09-12 02:52:56', '2019-10-18 18:13:40', '2021-10-22 01:02:27', '2021-08-15 18:57:33', '2021-10-14 14:51:30']"
205 South Salinas St,False,4g7eZD8PYvUEwROZeXxA-w,"{'Smokehouse', 'Smog Check Stations', 'Food', 'Automotive', 'Roadside Assistance', 'Auto Repair'}",34.4250092,-119.6703553,Salas Mobile Mechanic,41,5.0,"[1, 0, 0, 0, 40]","['2017-04-23 19:36:45', 0, 0, 0, '2021-11-24 20:52:07']"
3343 State St,True,54oLdsGU9B8HxFTqCCqV-A,"{'Italian', 'Delis', 'Event Planning & Services', 'Caterers', 'Restaurants'}",34.4400762121,-119.7363232264,Via Maestra 42,589,4.5,"[26, 33, 41, 105, 401]","['2022-01-02 21:13:45', '2022-01-02 20:46:17', '2021-12-22 09:28:15', '2021-07-24 17:56:05', '2022-01-16 04:57:27']"
305 W Montecito St,False,5LeEWF3UxdPAQhtss_PbJg,"{'Food', 'Grocery'}",34.4113204,-119.6962919,Mercado El Rey,15,4.5,"[0, 0, 0, 5, 10]","[0, 0, 0, '2021-12-26 21:47:28', '2021-06-02 02:56:03']"
415 E De La Guerra St,True,5Z3uvoIoOFUzTmrBmIJv2g,"{'Delis', 'Ethnic Grocery', 'Pasta Shops', 'Specialty Food', 'Sandwiches', 'Food', 'Grocery', 'Restaurants'}",34.4242963341,-119.6947383508,Nona's Italian Deli,37,3.0,"[9, 9, 1, 9, 10]","['2022-01-17 22:26:10', '2021-03-06 18:51:56', '2018-05-12 04:30:25', '2021-05-03 22:21:35', '2021-02-03 10:09:48']"
1835 Cliff Dr,False,5iCDjFNkihjzj94Gh0kyIA,"{'Pharmacy', 'Convenience Stores', 'Drugstores', 'Shopping', 'Food', 'Health & Medical'}",34.4012,-119.7218,CVS Pharmacy,24,3.5,"[6, 2, 0, 7, 11]","['2020-12-26 17:12:13', '2017-04-18 22:14:42', 0, '2021-10-30 19:43:52', '2020-08-17 00:35:17']"
"1230 State St, Unit A",False,5uNCvNy9L6peKeKP1RRPyg,"{'Vietnamese', 'Vegetarian', 'Noodles', 'Seafood', 'Nightlife', 'Wine Bars', 'Bars', 'Restaurants'}",34.4242954,-119.7053091,Saigon Vietnamese Restaurant,374,3.5,"[63, 63, 58, 104, 98]","['2021-11-30 06:20:25', '2022-01-02 20:41:40', '2021-12-23 02:59:41', '2022-01-15 19:06:06', '2021-12-31 01:53:36']"
202 N Milpas,True,5vIfUavd23X3lBzjnnc4QA,"{'Sandwiches', 'Coffee & Tea', 'Food', 'Donuts', 'Restaurants'}",34.423799,-119.6815126,Winchell's Donuts,21,3.0,"[6, 2, 4, 2, 7]","['2020-09-16 02:20:17', '2020-07-07 00:47:14', '2020-02-23 12:53:40', '2017-04-22 16:52:42', '2019-09-01 15:38:43']"
210 Stearns Wharf,True,6EPPtwJR1kdIfHiCjzCzuw,"{'American (Traditional)', 'Seafood', 'Restaurants'}",34.4104753,-119.6868426,The Harbor Restaurant,477,3.5,"[88, 73, 63, 112, 145]","['2021-09-21 06:03:07', '2021-12-25 02:12:44', '2021-04-11 23:05:49', '2021-08-08 21:54:41', '2022-01-08 22:29:16']"
324 West Cabrillo Blvd,True,6EizP0XyqITuGZ8GZMI9Lw,"{'Italian', 'Beer', 'Food', 'Nightlife', 'American (New)', 'Wine & Spirits', 'Bars', 'Restaurants'}",34.408633,-119.693496,Toma Restaurant & Bar,1084,4.5,"[44, 30, 55, 185, 790]","['2022-01-02 03:46:13', '2021-12-06 22:42:49', '2022-01-10 03:16:43', '2022-01-09 23:47:16', '2022-01-09 00:57:48']"
205 W Canon Perdido St,True,6HTGlttrzCMsuGBHO1ZGiw,"{'Diners', 'Specialty Food', 'Sandwiches', 'American (Traditional)', 'Food', 'Nightlife', 'American (New)', 'Wine Bars', 'Barbeque', 'Bars', 'Restaurants'}",34.4180454,-119.7029526,Barbareño,405,4.5,"[21, 21, 31, 46, 303]","['2021-10-28 02:38:42', '2021-11-11 04:40:46', '2021-10-21 04:58:41', '2021-05-16 19:49:50', '2022-01-13 04:36:51']"
622 N Milpas St,False,6RBZfirnzE4NahJTn1UPNA,"{'Mexican', 'Restaurants'}",34.4279428,-119.6872838,La Super-Rica Taqueria,1759,4.0,"[92, 175, 233, 433, 869]","['2021-09-15 05:07:14', '2022-01-17 05:22:52', '2022-01-06 16:27:44', '2022-01-18 01:58:57', '2022-01-17 19:38:17']"
1501 Residential Services,False,6RBrYMiAf8jFJI4fDoQpcw,"{'Cafeteria', 'Cafes', 'Sandwiches', 'Pizza', 'Mexican', 'American (New)', 'Restaurants'}",34.4096311088,-119.8450326706,De La Guerra Dining Commons,6,3.0,"[2, 0, 1, 2, 1]","['2021-10-13 02:40:32', 0, '2017-02-13 06:19:26', '2019-09-04 20:29:00', '2018-11-30 02:25:55']"
1218 Santa Barbara St,True,6VVbLYay8czrjKJ4xRoTxQ,"{'Breakfast & Brunch', 'Restaurants'}",34.4259896,-119.7026565,Judge For Yourself Cafe,110,4.5,"[4, 6, 13, 24, 67]","['2019-10-21 04:09:59', '2018-10-08 16:00:21', '2021-08-15 18:37:47', '2022-01-03 19:05:18', '2022-01-07 15:52:23']"
129 Castillo St,False,6cnHwjHLcAtIuMN0C6Kpbw,"{'Festivals', 'Beer', 'Arts & Entertainment', 'Tours', 'Food', 'Beer Tours', 'Wine & Spirits', 'Hotels & Travel'}",34.4090304175,-119.6951916436,Buckles 'N' Brews Invitational,10,4.5,"[0, 0, 0, 3, 7]","[0, 0, 0, '2018-05-11 23:42:54', '2019-06-13 18:50:21']"
636 Santa Barbara St,False,6gAZriMqRfI0d4hse5o1Yg,"{'Home Services', 'Skin Care', 'Water Purification Services', 'Local Services', 'Health Markets', 'Specialty Food', 'Water Delivery', 'Plumbing', 'Shopping', 'Food', 'Contractors', 'Beauty & Spas', 'Home & Garden'}",34.4208421,-119.6955096,Sol Wave Water,28,4.5,"[5, 0, 0, 0, 24]","['2021-07-13 16:03:46', 0, 0, 0, '2022-01-01 07:12:45']"
38 W Victoria St,False,6m4A_ciUZn1G302yx1YV1w,"{'Farmers Market', 'Specialty Food', 'Shopping', 'Food', 'Grocery', 'Public Markets', 'Local Flavor', 'Restaurants'}",34.4236050501,-119.7069126141,Santa Barbara Public Market,270,4.0,"[10, 21, 40, 96, 105]","['2021-06-08 14:24:24', '2021-03-28 04:02:03', '2021-12-24 06:43:48', '2021-12-29 01:02:42', '2021-12-25 11:47:53']"
3001 State St,True,6smGb7xv5fDbBsLgW1WC2w,"{'Sushi Bars', 'Specialty Food', 'Food', 'Japanese', 'Restaurants'}",34.440233,-119.728322,Shintori Sushi Factory,185,3.5,"[24, 18, 20, 52, 75]","['2021-05-03 18:59:20', '2019-05-26 20:13:55', '2019-05-13 01:04:50', '2019-11-01 01:49:05', '2021-09-12 19:08:06']"
31 El Paseo,False,6wPNzf-HzS-TDt6CjI_LSg,"{'Wine Tasting Room', 'Beer', 'Arts & Entertainment', 'Food', 'Wine & Spirits', 'Wineries'}",34.420488,-119.699649,Silver Wines,22,4.5,"[0, 1, 1, 2, 18]","[0, '2020-02-16 01:12:04', '2018-07-10 00:47:18', '2021-06-23 18:18:03', '2021-09-19 20:48:11']"
3427 State St,True,7IdIGemGZodDAA_9mJCigA,"{'Burgers', 'Breakfast & Brunch', 'American (New)', 'American (Traditional)', 'Restaurants'}",34.4400429,-119.7373433,Farmer Boy,255,4.0,"[22, 17, 26, 51, 147]","['2021-03-06 21:07:54', '2021-01-04 23:18:11', '2022-01-10 13:41:58', '2021-12-27 18:17:58', '2022-01-17 21:29:58']"
4069 State St,False,7UbXvL4SnVEDtx8oJbbuhw,"{'Automotive', 'Food', 'Gas Stations', 'Convenience Stores'}",34.4401727182,-119.758493118,Speedway,9,2.0,"[5, 3, 1, 0, 1]","['2021-07-28 04:05:41', '2021-08-15 21:08:53', '2021-11-04 04:25:01', 0, '2019-07-20 04:03:31']"
"140 S Hope Ave, Ste A102",True,7grEnJV48N6BxbEP3uxISA,"{'Cafes', 'Food', 'Bakeries', 'Middle Eastern', 'Restaurants'}",34.4367253,-119.748687,Mr B Restaurant & Cafe,21,4.0,"[2, 2, 0, 3, 14]","['2021-12-24 15:02:14', '2021-12-18 21:44:25', 0, '2021-11-29 18:12:58', '2021-12-24 17:06:33']"
1131 State St,True,7kLn2XsFwyJ-yFn4qx40TQ,"{'Argentine', 'Desserts', 'Food', 'Empanadas', 'Bakeries', 'Comfort Food', 'Restaurants'}",34.4229213,-119.7044244,Buena Onda at Mosaic Locale,35,4.5,"[1, 0, 2, 2, 30]","['2021-09-03 19:22:23', 0, '2021-12-31 18:56:14', '2021-09-22 23:01:18', '2021-12-06 05:20:44']"
1085 Coast Village Rd,True,7kc2qp0PINf5qW8soYREYw,"{'Beer', 'Propane', 'Car Wash', 'Local Services', 'Convenience Stores', 'Food', 'Automotive', 'Wine & Spirits', 'Gas Stations'}",34.4210992,-119.6481732,The Point Market at Coast Village Chevron,33,3.5,"[10, 1, 3, 5, 15]","['2021-11-12 04:17:42', '2020-07-09 23:40:10', '2021-09-24 01:08:41', '2021-10-11 12:38:18', '2021-08-31 20:41:47']"
"113 Harbor Way, Ste 180",False,7oPREWTlY8RIMfwT1R0YYw,"{'Gastropubs', 'Nightlife', 'American (New)', 'Bars', 'Restaurants'}",34.4040037119,-119.6938017,SALTY at the Beach,70,4.0,"[5, 10, 7, 16, 32]","['2021-12-15 17:04:15', '2021-12-27 23:21:02', '2022-01-17 08:58:06', '2021-11-05 07:18:07', '2021-12-31 21:31:54']"
2001 State St,True,7wSnkgOORRCqVDa_n8Upxg,"{'American (Traditional)', 'Breakfast & Brunch', 'Sandwiches', 'Restaurants'}",34.4308351,-119.7149595,Garrett's Old Fashioned Restaurant,510,4.0,"[27, 20, 53, 126, 289]","['2021-07-05 19:47:37', '2020-07-19 18:55:32', '2021-12-20 20:34:25', '2021-12-15 13:26:07', '2022-01-15 17:50:34']"
107 Harbor Way,True,7wcHZ80HLJVwUijAH_efJQ,"{'American (Traditional)', 'Breakfast & Brunch', 'Seafood', 'Restaurants'}",34.404278,-119.694053,Breakwater Restaurant,212,3.5,"[36, 29, 32, 44, 72]","['2021-09-25 15:33:40', '2021-11-25 22:15:17', '2021-12-05 20:41:47', '2021-11-11 18:14:40', '2022-01-12 17:43:24']"
651 Paseo Nuevo,False,8-ZExybRuyyXZf6aESgc3g,"{'Shopping', 'Shopping Centers', 'Local Flavor', 'American (Traditional)', 'Restaurants'}",34.418991,-119.699996,Paseo Nuevo Shopping Center,125,4.0,"[9, 2, 16, 59, 43]","['2021-11-09 03:33:11', '2021-04-25 16:30:02', '2019-11-28 16:53:31', '2021-06-12 21:43:46', '2021-12-12 01:33:55']"
8301 Hollister Ave,False,8A5LSwsKK5vXDH1M3_Tf1w,"{'Hotels', 'Resorts', 'Massage', 'Day Spas', 'Venues & Event Spaces', 'Beauty & Spas', 'Event Planning & Services', 'American (New)', 'Hotels & Travel', 'Restaurants'}",34.4345451317,-119.9206727994,"The Ritz-Carlton Bacara, Santa Barbara",1383,3.5,"[212, 188, 186, 232, 631]","['2021-12-26 00:20:15', '2021-12-01 15:20:13', '2022-01-04 18:37:34', '2021-07-20 16:05:23', '2022-01-18 10:48:02']"
314 E Haley St,True,8JzURExziDYuCrd7Ve9nDQ,"{'Food', 'Bakeries', 'Delis', 'Restaurants'}",34.4202813,-119.6915269,Los Tarascos Bakery and Deli,44,4.5,"[3, 1, 3, 5, 32]","['2021-12-19 18:42:07', '2014-04-07 20:56:33', '2019-12-28 05:42:16', '2019-09-21 17:34:55', '2021-11-05 00:07:10']"
432 E Haley St,True,8Lbz0hfE4MWzd7yDu9atBA,"{'Wine Tasting Room', 'Tapas/Small Plates', 'Arts & Entertainment', 'Food', 'Nightlife', 'American (New)', 'Restaurants', 'Wine Bars', 'Tapas Bars', 'American (Traditional)', 'Bars', 'Wineries'}",34.4217441,-119.689904,Uncorked Wine Tasting and Kitchen,146,5.0,"[1, 1, 1, 11, 143]","['2021-11-26 01:19:30', '2019-05-10 05:28:31', '2019-05-05 20:09:36', '2020-06-23 00:25:14', '2021-08-01 00:45:58']"
18 E Ortega St,True,8MoqZqlNN9AXzG91_Hpc_Q,"{'Gastropubs', 'Irish', 'Nightlife', 'Pubs', 'Bars', 'Restaurants'}",34.4190968,-119.6974545,Dargan's Irish Pub & Restaurant,289,4.0,"[20, 8, 38, 86, 139]","['2020-01-14 04:46:15', '2019-11-24 19:38:00', '2021-10-20 15:35:27', '2021-11-22 18:43:40', '2022-01-18 15:51:53']"
1994 Cliff Dr,True,8RlO6NuhWzXktp-1croq5A,"{'Szechuan', 'Chinese', 'Restaurants'}",34.4024127,-119.7235134,Szechuan Restaurant,234,3.5,"[35, 19, 23, 61, 106]","['2021-01-17 19:51:42', '2021-09-01 03:21:31', '2021-10-16 03:51:58', '2021-03-15 23:32:02', '2022-01-11 17:59:21']"
26 E Ortega St,True,8Vo6LN9gqULhXzoxj5k6kQ,"{'Asian Fusion', 'Beer', 'Food', 'Nightlife', 'American (New)', 'Restaurants', 'Wine & Spirits', 'Japanese', 'Cocktail Bars', 'Bars', 'Ramen'}",34.4192463,-119.6970386,The Black Sheep,983,4.5,"[52, 41, 70, 156, 693]","['2022-01-17 19:56:51', '2021-12-26 04:54:48', '2022-01-17 17:32:43', '2021-12-30 23:29:56', '2022-01-15 06:44:32']"
914 Santa Barbara St,True,8_r9EZL6vX5fPBoVh3gUrA,"{'Mexican', 'Restaurants'}",34.4232341,-119.698741,La Playa Azul Cafe,318,4.0,"[27, 21, 36, 83, 162]","['2021-10-18 21:02:26', '2021-09-22 07:16:28', '2021-11-06 20:11:52', '2021-11-13 21:20:16', '2022-01-08 15:16:07']"
,False,8ei40SEWTURN8ROo5mBiJg,"{'Bartenders', 'Wedding Planning', 'Arts & Entertainment', 'Party & Event Planning', 'Personal Chefs', 'Venues & Event Spaces', 'Food', 'Event Planning & Services', 'Caterers', 'Food Trucks', 'Wineries'}",34.433094,-119.6817845,Fire & Wine Catering,39,5.0,"[0, 0, 0, 0, 39]","[0, 0, 0, 0, '2020-05-10 00:41:43']"
610 State St,True,8vMULlBjFJyS_836tOKnVQ,"{'Beer', 'Shopping', 'Food', 'Home Decor', 'Wine & Spirits', 'Furniture Stores', 'Home & Garden'}",34.4181565,-119.6967313,World Market,56,4.0,"[4, 2, 6, 19, 27]","['2021-06-22 02:07:10', '2016-02-20 18:07:56', '2017-04-15 15:06:57', '2020-07-04 16:05:22', '2022-01-19 04:08:20']"
804 Anacapa St,True,9JHhenxdM20EqmTQba6WyA,"{'Food', 'Arts & Entertainment', 'Wine Tasting Room', 'Wineries'}",34.4213041,-119.6984869,Frequency Wine,61,5.0,"[0, 0, 2, 3, 59]","[0, 0, '2019-06-10 21:29:57', '2020-12-28 22:38:58', '2021-12-17 16:34:45']"
,False,9L-MR0arflwFMF9szEBOOg,"{'Wineries', 'Festivals', 'Arts & Entertainment', 'Food', 'Food Stands', 'Restaurants'}",34.4144660474,-119.6851896343,California Wine Festival,7,4.5,"[0, 1, 0, 1, 5]","[0, '2018-07-24 00:02:46', 0, '2019-07-20 16:26:03', '2019-06-23 21:40:22']"
"219 Stearns Wharf, #B",False,9dYarThtZVX4PvmtnFIrxA,"{'Food', 'Specialty Food', 'Candy Stores'}",34.4098797,-119.6855073,Mother Stearns Candy,41,3.0,"[10, 2, 11, 9, 9]","['2020-01-07 07:56:59', '2014-02-09 17:54:54', '2021-09-02 05:02:44', '2021-02-14 16:49:20', '2021-08-12 20:29:49']"
3302 Mc Caw Ave,True,9h0i4lVC5eCVhRTanWsEAg,"{'French', 'American (New)', 'Restaurants'}",34.4385383,-119.7351631,Le Cafe Stella,263,3.5,"[34, 25, 41, 67, 105]","['2019-12-13 16:51:47', '2018-04-09 19:08:54', '2021-06-10 18:44:27', '2022-01-04 03:19:34', '2021-12-24 21:34:04']"
101 W Carrillo St,False,9mFXgiTMa-mdaqmxA41t6A,"{'Convenience Stores', 'Beer', 'Food', 'Automotive', 'Wine & Spirits', 'Gas Stations'}",34.4199297,-119.7029883,The Point Market,10,3.5,"[4, 0, 0, 1, 6]","['2020-06-18 20:57:24', 0, 0, '2012-08-02 21:52:49', '2021-06-30 15:08:11']"
628 State St,True,9u79dIXLQzmt9rnOZEnBaQ,"{'Burgers', 'Restaurants'}",34.418499,-119.697453,The Habit Burger Grill,306,4.0,"[15, 20, 58, 113, 107]","['2021-12-28 00:40:23', '2021-10-15 04:25:47', '2021-07-05 17:14:39', '2021-10-30 02:34:45', '2021-07-02 19:25:29']"
310 Chapala St,True,9ugpNKKhnYRa51qXoxUw_A,"{'Mexican', 'Restaurants'}",34.414316,-119.694449,Lilly's Tacos,1219,4.5,"[21, 41, 88, 324, 772]","['2021-02-07 03:57:01', '2022-01-01 04:43:22', '2021-11-14 00:02:07', '2022-01-13 16:25:11', '2022-01-18 02:18:19']"
4010 Calle Real,False,AAiPARkDNPHR2g7BnmFRUw,"{'Beer', 'Wine & Spirits', 'Food', 'Shopping'}",34.4414002,-119.7557568,Hi-Time Liquors No 6,6,4.5,"[1, 1, 0, 0, 5]","['2019-10-16 03:18:08', '2015-09-25 16:22:12', 0, 0, '2021-05-27 04:02:00']"
3761 State St,True,AMi1h-goNueHf_Lvx4Cu4g,"{'Specialty Food', 'Health Markets', 'Food', 'Grocery', 'Event Planning & Services', 'Caterers', 'Organic Stores'}",34.43934579,-119.7455127,Whole Foods Market,224,3.0,"[52, 35, 24, 63, 60]","['2021-12-29 16:19:17', '2021-10-24 19:02:27', '2021-10-15 15:55:14', '2021-12-23 23:05:47', '2021-07-27 09:54:40']"
"131 Anacapa St, Ste B",False,AV3XPH1iv8PKSO6mrnYgLg,"{'Nightlife', 'Cocktail Bars', 'American (Traditional)', 'Bars', 'Restaurants'}",34.4144445,-119.6906718,Pearl Social Santa Barbara,36,4.5,"[3, 1, 3, 7, 24]","['2021-12-22 05:05:01', '2021-07-12 07:25:18', '2021-11-30 03:52:29', '2022-01-03 03:51:21', '2022-01-16 20:19:14']"
11 Anacapa St,True,AXC__4yZrn-N3BT7-2bV_Q,"{'Hot Dogs', 'Pizza', 'Nightlife', 'Beer Gardens', 'Restaurants'}",34.41339,-119.68894,Biergarten,104,4.0,"[8, 5, 8, 21, 62]","['2021-12-11 03:32:54', '2021-11-27 05:00:51', '2021-10-09 16:31:17', '2022-01-17 17:26:12', '2022-01-03 01:05:39']"
210 Stearns Wharf,True,Aes-0Q_guDeYewMapFs_vg,"{'Seafood', 'Nightlife', 'American (Traditional)', 'Bars', 'Restaurants'}",34.410291545,-119.6865421917,Longboard's Grill,516,3.0,"[92, 97, 115, 109, 104]","['2021-12-09 01:11:00', '2021-07-19 04:01:03', '2021-08-19 03:20:52', '2021-10-11 01:32:20', '2021-12-29 21:30:43']"
210 Stearns Wharf,False,AgiBcv5rKdV9QIO5yF7w8g,"{'Boating', 'Active Life', 'Restaurants'}",34.4104753,-119.6868426,Harbor of Santa Barbara Inc,5,3.5,"[0, 2, 0, 1, 2]","[0, '2018-05-12 23:21:14', 0, '2014-06-20 14:45:52', '2012-07-05 18:39:06']"
208 West Carrillo St,True,Aj44kUBmEfJlUsGCvKJKtw,"{'Coffee & Tea', 'Food'}",34.419347,-119.704388,Starbucks,21,3.0,"[7, 3, 2, 3, 6]","['2021-06-15 01:25:23', '2018-03-13 00:36:26', '2017-09-22 15:53:27', '2021-07-21 06:27:31', '2019-06-17 00:22:13']"
318 N Milpas St,True,Ak4vFqHZUWU5KXONRnuieQ,"{'Mexican', 'Breakfast & Brunch', 'Seafood', 'Restaurants'}",34.4249982,-119.6833024,Los Altos Restaurant,166,4.0,"[13, 7, 13, 34, 100]","['2021-06-17 01:40:50', '2020-09-27 04:15:00', '2021-12-23 06:46:02', '2021-10-06 04:05:07', '2021-12-25 00:08:16']"
"1221 State St, Ste 205",True,AmAc0eD6lyVyb7QdOAO1Mg,"{'Music Venues', 'Arts & Entertainment', 'Nightlife', 'American (Traditional)', 'Bars', 'Restaurants'}",34.4237983504,-119.705293234,Soho Restaurant & Music Club,138,3.5,"[25, 8, 19, 42, 46]","['2022-01-12 17:40:26', '2018-05-20 00:12:10', '2019-06-24 03:01:31', '2021-11-29 20:52:52', '2021-12-31 15:51:19']"
1936 State St,True,AorcIbAAOJI7z0CBwICwoQ,"{'Convenience Stores', 'Food', 'Coffee & Tea'}",34.4308414355,-119.7143214941,7-Eleven,11,2.5,"[6, 0, 0, 3, 2]","['2021-09-15 02:43:22', 0, 0, '2019-07-08 18:39:27', '2018-11-04 15:53:18']"
418 State St,False,AqOSpSqdocwtIjqTECW2ng,"{'Fish & Chips', 'Seafood', 'Restaurants'}",34.416527,-119.6945756,Broad Street Oyster Company,5,5.0,"[0, 0, 0, 0, 5]","[0, 0, 0, 0, '2022-01-18 23:11:15']"
138 E Canon Perdido St,True,AzZqXglv_puXwd4kCvM7ew,"{'Mexican', 'Restaurants'}",34.4225063036,-119.69837855,Rudy's,96,4.0,"[12, 8, 7, 19, 52]","['2021-09-16 21:11:57', '2020-10-28 00:38:29', '2021-12-10 22:46:45', '2021-07-13 01:14:37', '2021-12-15 09:11:32']"
,False,B1mZ8PEh4JYCTElXFVg8kQ,"{'Food Delivery Services', 'Personal Chefs', 'Food', 'Event Planning & Services', 'Caterers'}",34.4381407,-119.6151426,Poe and Co,9,4.5,"[1, 0, 0, 0, 8]","['2021-11-04 19:07:57', 0, 0, 0, '2021-04-21 18:15:16']"
36 State St,True,B1yPXzIIJrLWyTcE4jsYuQ,"{'Sandwiches', 'Food', 'Bakeries', 'American (Traditional)', 'Restaurants'}",34.4134723455,-119.6906522184,Goat Tree,311,3.5,"[53, 41, 33, 51, 144]","['2021-11-27 02:38:22', '2022-01-02 00:16:08', '2021-12-24 23:41:41', '2022-01-13 03:07:11', '2021-12-18 17:46:47']"
24 W Figueroa St,True,BErYojCJSO959vzaz9JclQ,"{'Breakfast & Brunch', 'Delis', 'Beer', 'Cafes', 'Coffee & Tea', 'Food', 'Gluten-Free', 'Wine & Spirits', 'Restaurants'}",34.4219321,-119.7040745,Savoy Cafe & Deli,571,4.5,"[31, 20, 28, 142, 365]","['2021-04-30 16:31:32', '2020-09-23 21:50:50', '2021-05-15 19:58:50', '2021-10-13 02:10:44', '2022-01-12 18:13:50']"
4421 Hollister Ave,True,BEzvmorW8ILha6tcSxBBwA,"{'Salad', 'Sandwiches', 'Pizza', 'Restaurants'}",34.439746,-119.770649,Valentino's Take N Bake Pizza,69,4.5,"[5, 2, 1, 11, 50]","['2021-02-11 02:34:23', '2016-12-28 01:30:28', '2014-03-01 03:04:57', '2019-03-12 05:12:51', '2022-01-11 23:03:52']"
"3313 State St, Ste B",True,BQv7ntaOxs80FJAji2U9pg,"{'Venues & Event Spaces', 'American (Traditional)', 'Event Planning & Services', 'Restaurants'}",34.439317,-119.735834,Harry's Plaza Cafe,337,3.5,"[52, 31, 45, 91, 130]","['2022-01-09 00:37:37', '2021-09-05 02:48:24', '2021-09-22 04:00:40', '2021-09-21 03:23:23', '2022-01-08 03:20:17']"
1202 Chapala St,True,B_q2xoAgTyn6U4YNEc3kSw,"{'Desserts', 'Dim Sum', 'Food', 'Coffee & Tea', 'Chinese', 'Restaurants'}",34.422519,-119.7057271,China Pavilion,348,3.5,"[70, 31, 44, 108, 103]","['2021-07-02 03:42:55', '2020-03-12 21:30:10', '2021-10-24 08:52:23', '2021-12-09 17:03:20', '2021-12-23 17:45:38']"
626 W Micheltorena St,True,BaWVwChTW_MqkKru_WZp3g,"{'Mexican', 'Restaurants'}",34.4192829,-119.7158982,Super Cuca's Restaurant,276,4.0,"[18, 13, 37, 64, 150]","['2021-10-09 03:48:14', '2020-07-29 04:15:06', '2021-10-24 22:01:45', '2021-08-30 17:46:02', '2022-01-14 18:59:32']"
800 El Bosque Rd,False,BensdYRuR-zra1g3nBJFXQ,"{'Venues & Event Spaces', 'Health Retreats', 'Event Planning & Services', 'Hotels & Travel', 'Restaurants'}",34.445018,-119.623996,La Casa De Maria,12,4.5,"[1, 0, 1, 0, 10]","['2017-04-15 17:16:29', 0, '2017-04-10 01:50:00', 0, '2018-01-10 17:43:18']"
2012 De La Vina St,False,Bo-GGwQNcLVwyKeYkbfAYg,"{'Wine Tasting Room', 'Beer', 'Local Services', 'Arts & Entertainment', 'Food', 'Venues & Event Spaces', 'Nightlife', 'Wine & Spirits', 'Event Planning & Services', 'Wine Bars', 'Self Storage', 'Bars', 'Wineries'}",34.4291544,-119.7172224,Vino Divino,19,5.0,"[0, 0, 0, 1, 19]","[0, 0, 0, '2010-01-28 21:15:45', '2021-06-06 19:47:53']"
129 E Anapamu St,False,BseHdXex5Od2Or_TyUIoWQ,"{'Nightlife', 'American (New)', 'American (Traditional)', 'Bars', 'Restaurants'}",34.425341,-119.7027168,Courthouse Tavern,13,4.0,"[3, 0, 0, 3, 7]","['2021-10-30 20:58:05', 0, 0, '2021-12-05 18:47:09', '2022-01-08 23:36:01']"
431 State St,True,BwUWmUFKCuJ-nN9vFwMt2Q,"{'Indian', 'Himalayan/Nepalese', 'Restaurants'}",34.4164228,-119.6954472,Himalayan Kitchen,361,4.0,"[52, 23, 26, 87, 183]","['2021-09-22 22:48:43', '2021-06-01 01:55:30', '2021-08-11 23:45:50', '2021-12-27 03:40:06', '2022-01-07 06:14:15']"
3731 State St,True,C-aATB7SbuwMBPN5dgjghQ,"{'Salad', 'Sandwiches', 'Pizza', 'Restaurants'}",34.4400942,-119.7434636,Rusty's Pizza Parlor,127,3.0,"[31, 16, 20, 32, 33]","['2021-12-09 04:43:52', '2021-10-31 16:17:11', '2021-12-23 05:36:12', '2021-09-28 22:24:20', '2022-01-04 22:31:00']"
"1255 Coast Village Rd, Ste 102A",True,C-zgOpqD2K0xDJU4ty7zKg,"{'Beer', 'Cafes', 'Pizza', 'Coffee & Tea', 'Food', 'Wine & Spirits', 'Restaurants'}",34.4210441,-119.6419027,Honor Market,57,4.5,"[2, 6, 3, 10, 39]","['2020-08-04 04:20:50', '2021-06-20 22:05:50', '2021-01-02 20:22:14', '2021-04-07 02:02:39', '2022-01-18 20:02:39']"
1498 E Valley Rd,True,C6AiAF35zwpAoK5jjm-nhA,"{'Breakfast & Brunch', 'Sandwiches', 'Coffee & Tea', 'Food', 'Restaurants'}",34.4372898,-119.632278,Montecito Coffee Shop,37,3.5,"[7, 4, 2, 13, 12]","['2017-10-16 20:04:12', '2019-07-17 19:48:03', '2021-10-12 19:49:34', '2021-11-26 21:48:13', '2021-10-03 20:00:04']"
500 James Fowler Rd,False,C9_UPkwXYx9B3fxNLkCHgA,"{'Coffee & Tea', 'Food'}",34.424872,-119.836485,The Coffee Bean & Tea Leaf,8,3.0,"[3, 1, 0, 2, 2]","['2021-03-11 02:58:00', '2021-04-17 20:22:36', 0, '2021-05-19 19:59:57', '2022-01-13 22:05:42']"
76 El Sueno Rd,False,CNVbKrqBr6NdKqzCYLeZrA,"{'Food', 'Grocery'}",34.4417269,-119.7691746,Hi Time Stop & Shop,7,3.5,"[2, 0, 1, 0, 4]","['2018-12-07 02:26:40', 0, '2016-12-26 03:05:01', 0, '2021-10-18 03:28:52']"
436 State St,True,COSC9JC0Vjr89CaTZuPkUA,"{'Restaurants', 'Japanese', 'Ramen'}",34.4167251564,-119.6952347475,Santa Barbara Craft Ramen,477,4.0,"[33, 36, 41, 116, 255]","['2021-11-20 03:30:32', '2021-08-24 01:49:15', '2022-01-09 04:56:22', '2021-11-28 02:48:43', '2022-01-15 22:09:43']"
"1230 State St, Ste C",True,CUWituEeIX3xA0xU7X82Ow,"{'Breakfast & Brunch', 'Acai Bowls', 'Food', 'Brazilian', 'Juice Bars & Smoothies', 'Salad', 'Restaurants'}",34.4241338,-119.7053847,Brasil Arts Cafe,360,4.0,"[39, 13, 27, 75, 213]","['2021-08-19 22:22:13', '2019-09-03 00:16:25', '2020-03-25 23:45:22', '2021-12-15 12:06:28', '2021-12-21 06:50:22']"
"406 E Haley St, Ste 3",True,CWdCNIJU4Kh480NV9dgQjw,"{'Breweries', 'Beer', 'Food', 'Nightlife', 'Wine & Spirits', 'Beer Gardens'}",34.4209477132,-119.690492184,Third Window Brewing,183,4.5,"[5, 5, 7, 46, 122]","['2021-08-16 20:57:05', '2019-02-17 02:32:53', '2021-08-30 03:52:12', '2021-10-26 18:16:24', '2022-01-08 17:46:01']"
5097 Hollister Ave,False,Cd-hiDiuj7TFv8b_Nln5aA,"{'Beer', 'Propane', 'Car Wash', 'Local Services', 'Convenience Stores', 'Shopping', 'Food', 'Automotive', 'Wine & Spirits', 'Gas Stations'}",34.4345465526,-119.8019228094,The Point Market at Walnut Shell,11,3.5,"[2, 1, 1, 4, 3]","['2017-03-09 04:09:03', '2018-09-23 05:46:35', '2017-10-20 03:57:57', '2021-04-13 05:28:24', '2019-05-25 19:55:40']"
232 W Carrillo St,True,Ce6B2-CYAjGvRZe3GKyxYA,"{'Chicken Wings', 'Salad', 'Pizza', 'Restaurants'}",34.4185116,-119.7053495,Rusty's Pizza Parlor,124,3.0,"[42, 15, 15, 25, 33]","['2022-01-04 01:12:57', '2021-09-24 23:46:39', '2021-12-22 05:06:44', '2021-08-16 22:41:34', '2021-12-31 02:04:39']"
4422 Hollister Ave,False,Ch6O9z9_hHDACROLTr2JUQ,"{'Food', 'Grocery', 'Delis', 'Restaurants'}",34.440266,-119.7707687,European Deli Market,45,4.5,"[3, 1, 4, 11, 29]","['2021-04-13 19:05:07', '2015-11-20 03:52:57', '2021-11-04 18:37:55', '2020-01-17 01:31:08', '2021-05-19 22:05:41']"
"1324 State St, Ste A",True,CkENBnSJFfPA1hY0qrqfCg,"{'Mexican', 'Restaurants'}",34.42505409,-119.7065041501,Carlitos Cafe Y Cantina,731,3.5,"[99, 78, 89, 203, 281]","['2021-09-18 04:01:16', '2021-08-13 23:56:51', '2021-08-08 22:46:19', '2021-12-05 21:53:08', '2021-11-22 23:54:09']"
1325 State St,True,CoZ2mpsMBP8HUG1ymKoZTg,"{'Steakhouses', 'Sandwiches', 'Seafood', 'Nightlife', 'American (New)', 'Bars', 'Restaurants'}",34.4247634,-119.7067564,Opal Restaurant & Bar,954,4.0,"[21, 68, 94, 279, 520]","['2020-06-21 22:11:10', '2021-09-06 03:38:45', '2021-12-01 18:25:35', '2021-12-15 06:38:53', '2022-01-03 19:27:07']"
"1221 State St, Ste 10",True,CuRjZOmfnXjefwEpyzmTTw,"{'Vietnamese', 'Breakfast & Brunch', 'Pizza', 'Gluten-Free', 'Restaurants'}",34.4238017043,-119.7052940679,4 Eggs & Pizza,60,5.0,"[1, 0, 1, 5, 54]","['2021-05-22 04:19:09', 0, '2021-11-07 14:55:56', '2021-11-21 20:45:03', '2022-01-18 02:49:53']"
509 State St,True,CziOtnFSklimJnBgksDDwA,"{'Italian', 'Vegetarian', 'Food', 'Gluten-Free', 'Gelato', 'Restaurants'}",34.419107,-119.699243,Pascucci,1069,3.5,"[197, 144, 155, 258, 343]","['2022-01-01 02:41:58', '2021-11-27 01:55:58', '2021-11-13 02:34:28', '2021-10-14 02:07:09', '2022-01-18 16:28:09']"
119 E Cota St,True,D1OT9vuepvXJrn5VDgm4YA,"{'Farmers Market', 'Food', 'Specialty Food', 'Fruits & Veggies'}",34.419744,-119.695264,Santa Barbara Certified Farmers Market,113,4.5,"[2, 1, 6, 22, 84]","['2019-02-10 23:30:06', '2011-06-21 18:42:23', '2015-09-15 03:40:38', '2020-12-13 23:16:03', '2021-11-15 05:07:37']"
127 Anacapa St,True,DOfiulOub9hVPBCtiDl9Fw,"{'Italian', 'Breakfast & Brunch', 'Beer', 'Wine Bars', 'Sandwiches', 'Pizza', 'Coffee & Tea', 'Food', 'Nightlife', 'American (New)', 'Wine & Spirits', 'Salad', 'Bars', 'Restaurants'}",34.414643,-119.690235,Lucky Penny,643,4.0,"[51, 36, 58, 167, 344]","['2022-01-17 03:37:36', '2021-10-19 18:23:46', '2022-01-02 18:23:29', '2021-10-09 22:12:36', '2022-01-17 04:20:24']"
726 N Milpas St,True,DV0BJwh9qzPqcxufrA_7ag,"{'Burgers', 'Delis', 'American (Traditional)', 'Sandwiches', 'Salad', 'Restaurants'}",34.4290389,-119.6886416,Sam's to Go - Milpas,33,3.0,"[12, 5, 1, 7, 8]","['2021-12-14 21:51:26', '2021-11-10 23:03:46', '2014-10-01 20:24:26', '2021-11-12 19:08:44', '2020-07-25 23:28:15']"
,False,DZdGvf67WEG8ZDRM2fLt1w,"{'Transportation', 'Limos', 'Arts & Entertainment', 'Tours', 'Food', 'Wine Tours', 'Hotels & Travel', 'Wineries'}",34.420334,-119.7107494,Explore Wines Tour,48,5.0,"[0, 0, 0, 0, 49]","[0, 0, 0, 0, '2022-01-03 15:55:22']"
3849 State St,True,D_PdJRvtr_syv1DtLIoM0g,"{'Gift Shops', 'Candy Stores', 'Specialty Food', 'Shopping', 'Food', 'Chocolatiers & Shops', 'Flowers & Gifts'}",34.43926,-119.749113,See's Candies,12,4.0,"[1, 2, 0, 3, 7]","['2021-12-28 21:47:31', '2020-09-02 18:25:28', 0, '2020-06-10 04:47:26', '2020-11-13 20:49:51']"
4123 State St,True,D_WS8rM-DVygaCKbIErZ6Q,"{'Mexican', 'Restaurants'}",34.440664,-119.760507,Palapa,232,4.0,"[24, 19, 21, 64, 112]","['2021-12-09 20:45:19', '2021-08-18 05:10:24', '2021-07-30 22:24:56', '2021-10-18 01:14:42', '2022-01-17 20:53:15']"
,False,DlCDhT-ovjV7hQywe0YirQ,"{'Custom Cakes', 'Party & Event Planning', 'Food', 'Event Planning & Services', 'Caterers'}",34.532293138,-119.799686342,The Cookery Catering,5,5.0,"[0, 0, 0, 0, 6]","[0, 0, 0, 0, '2021-10-16 19:05:44']"
10 El Paseo,True,DqVpNtgFCP47n6frh-LREA,"{'Mexican', 'Restaurants'}",34.4207686737,-119.6991676593,El Paseo Mexican Restaurant,262,3.5,"[56, 34, 22, 55, 99]","['2022-01-06 22:57:54', '2021-08-12 02:54:59', '2021-12-07 20:39:51', '2021-12-13 00:32:30', '2022-01-18 02:05:40']"
17 W Ortega St,True,E1R-xslwl7XeTN5lQ7mWPg,"{'Breakfast & Brunch', 'Burgers', 'Diners', 'Nightlife', 'American (New)', 'Salad', 'Comfort Food', 'Restaurants'}",34.417947,-119.6984853,Little Kitchen,272,4.5,"[15, 10, 20, 66, 169]","['2021-09-25 01:59:40', '2019-11-08 04:18:07', '2021-06-22 15:09:19', '2021-09-30 06:12:02', '2021-12-19 02:38:58']"
"1187 Coast Village Rd, Ste 5",True,E1b_hNr22N2wGkq5Z9fmHw,"{'Live/Raw Food', 'Food', 'Juice Bars & Smoothies', 'Vegan', 'Restaurants'}",34.4207816,-119.6449207,Juice Ranch,21,3.5,"[5, 2, 0, 1, 13]","['2022-01-16 15:54:28', '2021-12-13 03:40:09', 0, '2019-10-22 21:43:13', '2021-07-21 16:52:05']"
901 Chapala St,True,E3WUDYEvCVMplIFMgeN1xw,"{'Breakfast & Brunch', 'Burgers', 'Cajun/Creole', 'Event Planning & Services', 'Caterers', 'Restaurants'}",34.419398,-119.702048,Cajun Kitchen Cafe,519,4.0,"[32, 42, 62, 158, 231]","['2021-08-21 23:03:16', '2021-08-21 23:01:49', '2021-08-10 21:00:05', '2021-10-24 01:07:40', '2022-01-18 04:59:22']"
701 Bath St,False,E451ihy72tsLMAxbpPa0WQ,"{'Food', 'Grocery'}",34.4154595,-119.7016646,Little Corner Store,11,4.0,"[1, 0, 1, 3, 6]","['2020-11-18 04:22:45', 0, '2013-06-03 18:01:03', '2016-01-21 01:18:26', '2018-01-15 17:14:48']"
101 E Cabrillo Blvd,True,E7RtIisUoRMcADSebBgNAA,"{'Breakfast & Brunch', 'Desserts', 'Tapas/Small Plates', 'Seafood', 'Food', 'Restaurants'}",34.4136026,-119.6880758,Santa Barbara FisHouse,1140,3.5,"[122, 132, 168, 313, 434]","['2022-01-09 04:58:31', '2021-10-09 02:37:45', '2022-01-13 05:22:29', '2022-01-16 01:45:14', '2022-01-18 01:46:40']"
414 N Milpas St,True,E8tiSAB6O4TPeVdKR0K5Ug,"{'Pizza', 'Sandwiches', 'Chicken Wings', 'Salad', 'Restaurants'}",34.4259023,-119.6843914,Rusty's Pizza Parlor,89,3.0,"[28, 9, 6, 23, 23]","['2021-07-27 03:11:14', '2021-04-21 19:36:28', '2021-02-23 00:18:12', '2021-09-22 07:56:54', '2021-08-14 02:55:03']"
2840 De La Vina St,False,EA4v61tJCHg8xhk7bqn8Yw,"{'Discount Store', 'Shopping', 'Outlet Stores', 'Food', 'Grocery'}",34.437485,-119.726,Grocery Outlet Bargain Market,32,4.5,"[3, 0, 3, 4, 22]","['2020-10-30 23:23:39', 0, '2019-04-27 02:04:07', '2019-03-02 16:32:34', '2021-11-18 23:38:40']"
"3849 State St, Ste 163",True,EBuSqlpzzyfZZkEgPxVV1Q,"{'Chicken Wings', 'Restaurants'}",34.439291,-119.7491819,Wingstop,36,3.0,"[10, 3, 5, 5, 19]","['2021-05-07 06:58:07', '2021-09-13 21:33:36', '2021-06-07 03:43:22', '2021-10-04 00:56:49', '2021-12-20 04:21:31']"
827 E Montecito St,True,EEwmN2uP1PmOyxpTstSIxA,"{'Breakfast & Brunch', 'Delis', 'Desserts', 'Food', 'Food Trucks', 'Restaurants'}",34.4243367311,-119.6832437501,Fernando's Churros,40,4.5,"[5, 0, 0, 4, 34]","['2021-06-03 17:12:03', 0, 0, '2020-01-28 09:11:41', '2021-12-02 00:22:55']"
1501 San Andres St,True,ENp_DT0yXdIzdk_O8Ti_kQ,"{'International Grocery', 'Specialty Food', 'Food', 'Grocery', 'Fruits & Veggies', 'Meat Shops'}",34.4186862,-119.7164965,Foodland,13,3.5,"[1, 2, 1, 5, 4]","['2015-10-14 12:17:09', '2021-08-23 14:58:40', '2011-09-21 00:46:23', '2019-07-12 18:42:21', '2020-02-05 07:40:35']"
3888 State St,True,ERzIS-WRLw-80_B4yqcG3Q,"{'Steakhouses', 'Seafood', 'Nightlife', 'Salad', 'Restaurants'}",34.4407042,-119.7500818,Chuck's of Hawaii,260,3.5,"[37, 29, 26, 73, 105]","['2021-11-10 18:43:54', '2021-12-28 17:39:12', '2021-07-18 19:30:05', '2021-08-16 00:53:24', '2021-11-11 07:20:25']"
633 E Cabrillo Blvd,True,EWl5aixg4hCcuVYpz4BLKQ,"{'American (Traditional)', 'Restaurants'}",34.417139,-119.6758097,Cafe Los Arcos,10,3.0,"[2, 2, 2, 4, 0]","['2012-12-03 00:31:07', '2011-08-16 07:09:09', '2015-01-14 05:50:53', '2013-03-30 21:35:52', 0]"
"119 Harbor Way, Ste B",True,EXYbKA1tocvOK_1tXxZXLA,"{'Sushi Bars', 'Japanese', 'Restaurants'}",34.4039742,-119.6933033,Sushi GoGo,178,3.5,"[23, 16, 27, 59, 59]","['2021-04-17 02:19:45', '2021-03-22 01:12:45', '2021-10-03 02:19:48', '2021-12-12 00:32:07', '2021-11-16 23:25:48']"
"35 State St, Ste A",True,EZc2myE2mYk2h9JK9qu8gw,"{'Gastropubs', 'Nightlife', 'American (New)', 'Cocktail Bars', 'American (Traditional)', 'Bars', 'Restaurants'}",34.412764,-119.6903388,Finney's Crafthouse,1047,4.5,"[58, 57, 86, 242, 635]","['2021-12-30 00:41:15', '2021-12-14 08:23:24', '2022-01-07 05:16:18', '2022-01-17 05:47:20', '2022-01-14 03:57:00']"
30 W Anapamu St,False,E_ac8Q20OJD9L8cafCBKaQ,"{'Food Delivery Services', 'Food', 'Nightlife', 'Cocktail Bars', 'Tapas Bars', 'Bars', 'Restaurants'}",34.42257,-119.7054592,Milk & Honey Tapas,534,4.0,"[24, 41, 50, 159, 268]","['2020-08-28 02:33:47', '2021-03-02 10:18:17', '2021-08-15 16:29:40', '2021-08-25 17:42:06', '2021-12-02 04:37:19']"
6 Harbor Way,False,Ea2N2vZirKywxylvVo9Xpg,"{'Food', 'Specialty Food', 'Seafood Markets'}",34.403734,-119.6930168,Saturday Fishermen's Market,9,5.0,"[0, 0, 0, 1, 8]","[0, 0, 0, '2018-12-01 18:35:19', '2021-08-17 23:29:07']"
,False,EcJQ-fvI6ROOcKIu7XEcrQ,"{'Food', 'CSA', 'Specialty Food', 'Seafood Markets'}",34.4208305,-119.6981901,Get Hooked Seafood,10,5.0,"[0, 0, 0, 0, 10]","[0, 0, 0, 0, '2021-07-20 02:24:16']"
"38 W Victoria St, Ste 101",False,EoLzj1yciIjEZS9ZEJe_kQ,"{'Trivia Hosts', 'Sports Bars', 'Nightlife', 'Event Planning & Services', 'Beer Bar', 'Beer Gardens', 'Bars', 'Restaurants'}",34.4236075,-119.7070539,The Garden,85,3.0,"[22, 15, 15, 16, 25]","['2021-08-27 04:29:42', '2019-10-20 20:50:41', '2021-11-07 20:33:13', '2021-04-10 20:37:35', '2021-08-25 23:35:58']"
402 N Milpas St,True,EtGFDdjui_Hww78JU4XoXg,"{'Convenience Stores', 'Food', 'Coffee & Tea'}",34.4256965483,-119.6839676052,7-Eleven,6,3.0,"[3, 0, 0, 0, 3]","['2018-06-11 09:41:23', 0, 0, 0, '2017-05-25 15:49:14']"
514 State St,True,EtM079Cj7-B3G7jPsGYb_Q,"{'Music Venues', 'Sports Bars', 'Arts & Entertainment', 'Nightlife', 'Mexican', 'Dance Clubs', 'Bars', 'Restaurants'}",34.417371,-119.695827,Sandbar,1546,3.5,"[226, 129, 191, 355, 689]","['2021-11-12 17:53:33', '2022-01-19 03:14:04', '2022-01-12 15:31:36', '2021-12-30 02:38:42', '2022-01-08 00:14:32']"
"120 State St, Ste C",False,EtbukcoR6QW6_5fEeFcVoQ,"{'Food', 'Wine Tasting Room', 'Arts & Entertainment', 'Wineries'}",34.4136763536,-119.6910080312,Melville Winery,62,4.0,"[10, 1, 4, 7, 40]","['2021-08-28 03:18:57', '2018-09-01 22:28:41', '2021-11-09 04:01:30', '2021-08-18 01:17:47', '2021-11-14 00:21:59']"
3445 State St,False,EwaakynaS06R64xY8xM57g,"{'Coffee Roasteries', 'Breweries', 'Brewing Supplies', 'Shopping', 'Tasting Classes', 'Food', 'Do-It-Yourself Food', 'Education', 'Kombucha'}",34.440315,-119.738162,BYOB! Brew Your Own Beverage,9,4.5,"[0, 1, 0, 0, 8]","[0, '2021-11-14 00:16:54', 0, 0, '2020-04-06 05:16:14']"
1701 State St,True,EzhRlsTdACV60rOgrGYyqA,"{'Burgers', 'American (Traditional)', 'Breakfast & Brunch', 'Restaurants'}",34.42808,-119.71125,IHOP,98,3.0,"[23, 12, 11, 24, 29]","['2021-11-07 17:47:42', '2019-07-24 17:58:43', '2021-11-07 21:17:14', '2021-08-02 04:54:44', '2021-12-25 20:34:13']"
"11 W De La Guerra St, Unit A, Paseo Nuevo Mall",True,FDTwPQ4CNWEOY0rfh4eTzQ,"{'Shaved Ice', 'Desserts', 'Food', 'Event Planning & Services', 'Caterers', 'Ice Cream & Frozen Yogurt'}",34.419198636,-119.6996241767,ParadICE Hawaiian Shave Ice & Ice Cream,192,5.0,"[3, 3, 3, 10, 175]","['2020-07-04 22:55:31', '2021-03-20 01:52:17', '2020-06-09 04:31:12', '2021-08-09 04:30:11', '2021-09-22 16:20:23']"
5134 Hollister Ave,True,FE5R_F7svUphKeUWuxA0JA,"{'Mexican', 'Restaurants'}",34.435934,-119.8028451,Del Pueblo Cafe,206,4.0,"[27, 22, 26, 49, 97]","['2022-01-08 02:42:34', '2020-01-05 19:41:17', '2021-10-31 04:53:08', '2021-11-15 11:22:32', '2021-12-22 05:56:00']"
216 W Cabrillo Blvd,False,FEBwxZMEpxRwVXx9Fm0XZw,"{'Breakfast & Brunch', 'Diners', 'American (Traditional)', 'Salad', 'Restaurants'}",34.4099411,-119.6922624,Chad's,1268,4.0,"[117, 90, 175, 339, 573]","['2021-12-30 20:26:13', '2022-01-04 20:32:26', '2022-01-11 00:04:51', '2021-12-29 21:02:03', '2022-01-19 02:02:14']"
3607 State St,True,FH0MVF7kK0D76Hh4e7hXfQ,"{'Breakfast & Brunch', 'Coffee & Tea', 'Food', 'Bakeries', 'Restaurants'}",34.4401942,-119.7408847,Jeannine's American Bakery Restaurant,575,4.0,"[35, 39, 65, 162, 280]","['2021-12-30 20:17:01', '2021-07-31 19:15:21', '2021-07-11 11:48:54', '2022-01-12 05:15:32', '2022-01-17 18:21:51']"
1109 State St,False,FNT8JRNUh841qOvKhCC1NQ,"{'Pharmacy', 'Convenience Stores', 'Shopping', 'Drugstores', 'Food', 'Health & Medical'}",34.4224360805,-119.7039661022,CVS Pharmacy,25,2.0,"[18, 1, 2, 2, 3]","['2021-09-10 20:30:21', '2012-11-30 01:17:27', '2018-01-02 14:38:27', '2019-05-29 01:49:27', '2017-01-05 22:20:44']"
229 W Montecto St,True,FTFaEinJgzqY0ZHQMUSpQQ,"{'Burgers', 'Sports Bars', 'Breweries', 'Steakhouses', 'Seafood', 'Food', 'Nightlife', 'Brewpubs', 'American (Traditional)', 'Bars', 'Comfort Food', 'Restaurants'}",34.4120313,-119.6957699,The Brewhouse,696,3.5,"[61, 70, 104, 230, 245]","['2021-11-18 01:01:52', '2020-01-04 00:46:52', '2021-12-01 05:09:37', '2021-11-27 01:47:28', '2022-01-08 20:29:13']"
7 S Milpas St,True,Fg68C3AwFu74dXMhgX3qIw,"{'Fast Food', 'Burgers', 'Restaurants'}",34.421637097,-119.6784399163,Carl's Jr,18,3.5,"[3, 0, 4, 8, 3]","['2020-06-11 18:05:33', 0, '2019-09-03 20:22:37', '2020-01-14 06:09:11', '2019-06-20 00:41:17']"
"324 State St, Ste C",False,FjJxG78092vB1sa6hYzebw,"{'Boot Camps', 'Gyms', 'Nutritionists', 'Active Life', 'Food Delivery Services', 'Food', 'Trainers', 'Weight Loss Centers', 'Health & Medical', 'Yoga', 'Fitness & Instruction'}",34.4157298,-119.6936606,First Paige Fitness,5,5.0,"[0, 0, 0, 0, 5]","[0, 0, 0, 0, '2017-05-31 22:48:41']"
"131 Anacapa St, Ste C",False,FrxcwylzrO-ZnzxtiyUdDg,"{'Wine Tasting Room', 'Arts & Entertainment', 'Food', 'Local Flavor', 'Wineries'}",34.4145048366,-119.6906389478,Santa Barbara Wine Collective,83,4.0,"[18, 4, 5, 4, 53]","['2021-10-08 01:51:48', '2018-01-08 01:08:59', '2021-08-17 02:11:22', '2019-04-27 23:17:52', '2022-01-01 01:38:03']"
813 North Hope Ave,False,G2Mdyjts3zs8VKPi0jhLNQ,"{'Personal Assistants', 'Local Services', 'Food Delivery Services', 'Food', 'Professional Services', 'Couriers & Delivery Services'}",34.4517363,-119.7468046,Cool Couriers Santa Barbara Delivery Service,5,5.0,"[0, 0, 0, 0, 5]","[0, 0, 0, 0, '2021-03-17 23:15:41']"
800 Alvarado Pl,False,G9rBwcWp56C8r6ZFwVuimA,"{'Hotels', 'Breakfast & Brunch', 'Diners', 'Seafood', 'Nightlife', 'Event Planning & Services', 'American (New)', 'Hotels & Travel', 'Bars', 'Restaurants'}",34.439548,-119.703871,Belmond El Encanto Dining Room,224,3.0,"[48, 40, 35, 32, 79]","['2021-12-29 05:08:14', '2021-10-11 23:47:20', '2021-07-17 22:47:18', '2021-09-11 23:44:51', '2021-11-20 02:20:13']"
18 E Cota St,False,GBD-YjcOD1nG0wv4L0Lvfg,"{'Vegan', 'Pizza', 'Nightlife', 'Cocktail Bars', 'Wine Bars', 'American (Traditional)', 'Bars', 'Restaurants'}",34.4182166,-119.6961201,Venus in Furs,24,5.0,"[0, 0, 0, 4, 20]","[0, 0, 0, '2021-11-17 20:05:23', '2021-12-03 21:35:45']"
1121 E Montecito St,False,GRqPFmstPY7k8EBxEJ8i4w,"{'Food', 'Grocery'}",34.4270495,-119.6802229,Pennywise Market,12,4.5,"[0, 0, 0, 4, 8]","[0, 0, 0, '2016-04-08 16:46:22', '2021-04-09 23:41:18']"
515 N Milpas St,True,Gl3XO4ECKKli8-bKKdkkYA,"{'Chicken Wings', 'Chicken Shop', 'Fast Food', 'Restaurants'}",34.4265851783,-119.6860595043,KFC,36,2.0,"[20, 6, 5, 2, 4]","['2021-07-30 03:22:57', '2020-02-14 23:44:37', '2019-07-24 16:03:59', '2016-07-30 05:29:24', '2021-02-21 00:10:10']"
2299 Las Positas Rd,False,GmOfZHgU9fm75f1nmVZnNA,"{'Convenience Stores', 'Propane', 'Local Services', 'Food', 'Automotive', 'Gas Stations'}",34.4270394,-119.734822,The Point Market,7,3.5,"[2, 0, 0, 2, 3]","['2020-09-05 20:14:12', 0, 0, '2020-08-14 14:48:23', '2021-11-22 17:35:09']"
126 E Canon Perdido St,False,GtrY5U_M1ac3bYCk0DUeIg,"{'Delis', 'Sandwiches', 'Food', 'Event Planning & Services', 'Caterers', 'Restaurants'}",34.4221614,-119.698622,Three Pickles Subs and Sandwiches,244,4.5,"[13, 7, 14, 65, 150]","['2021-08-17 05:10:23', '2021-03-31 04:05:03', '2021-12-03 20:39:41', '2021-12-15 22:39:52', '2021-10-07 20:38:20']"
1919 Cliff Dr,True,GuzbBFraIq-fbkjfvaTRvg,"{'Home Services', 'Burgers', 'Mediterranean', 'Live/Raw Food', 'Keys & Locksmiths', 'Vegetarian', 'Food', 'Juice Bars & Smoothies', 'Vegan', 'Garage Door Services', 'Salad', 'Restaurants'}",34.4013485,-119.7230803,Mesa Verde,1796,4.5,"[33, 39, 80, 187, 1523]","['2021-12-06 08:35:01', '2022-01-15 20:41:34', '2021-09-03 09:15:39', '2021-12-24 23:07:43', '2022-01-19 03:55:58']"
432 E Haley St,True,GwtVBqKzW9j0zNQ7nYnT5g,"{'Breakfast & Brunch', 'Live/Raw Food', 'Food', 'Juice Bars & Smoothies', 'Organic Stores', 'Restaurants'}",34.4217441,-119.689904,AH Juice Organics,115,3.5,"[23, 11, 8, 14, 61]","['2022-01-08 21:58:19', '2021-06-23 16:50:54', '2021-09-18 21:08:29', '2021-11-20 16:37:04', '2021-12-25 17:42:47']"
"1046 Coast Village Rd, Ste F",True,Gz3vi3dVKMylBb8HV1tP8Q,"{'Food', 'Vegetarian', 'Juice Bars & Smoothies', 'Restaurants'}",34.4219674,-119.6501878,Blenders In the Grass,68,3.5,"[17, 6, 3, 17, 27]","['2021-11-09 04:23:38', '2019-07-15 00:29:59', '2019-05-07 19:59:53', '2021-01-12 00:11:59', '2021-01-03 21:25:58']"
721 Cliff Dr,False,H5bsmYmdO3FBVQHC3jfx2g,"{'Diners', 'Restaurants'}",34.4064006,-119.6972865,John Dunn Gourmet Dining Room,5,4.0,"[0, 0, 1, 3, 1]","[0, 0, '2013-03-28 02:50:52', '2017-05-08 18:35:54', '2019-04-19 04:49:08']"
416 E Micheltorena St,False,HKHz6u48Qgftwk_VRkLqSA,"{'Beer', 'Wine & Spirits', 'Grocery', 'Food'}",34.4307771,-119.7031754,Riviera Market & Liquor,12,5.0,"[0, 0, 0, 1, 11]","[0, 0, 0, '2014-01-11 07:52:56', '2021-01-06 17:27:41']"
4880 Hollister Ave,True,HNACff49-kXS7l0MyLOzHw,"{'Italian', 'Sandwiches', 'Pizza', 'Chicken Wings', 'Salad', 'Restaurants'}",34.4365334651,-119.7910648214,Rusty's Pizza Parlor,48,2.5,"[28, 4, 3, 4, 10]","['2021-03-01 08:08:18', '2018-05-14 15:27:11', '2015-01-13 05:45:38', '2022-01-12 17:26:17', '2020-07-27 03:57:23']"
600 Olive St,True,HOXbILWYZJkNUYYzYK_tZA,"{'Breakfast & Brunch', 'Italian', 'Beer', 'Active Life', 'Wedding Planning', 'Venues & Event Spaces', 'Food', 'Bocce Ball', 'Event Planning & Services', 'Wine & Spirits', 'Restaurants'}",34.4232597,-119.691138,Arnoldi's Cafe,291,4.0,"[26, 23, 40, 75, 135]","['2022-01-18 00:22:07', '2021-08-05 14:51:36', '2021-11-16 20:31:44', '2021-11-15 06:48:12', '2022-01-16 23:16:45']"
7 W Haley St,False,Hl_vXTiYLozWo7T9Cq17vw,"{'Desserts', 'Tapas/Small Plates', 'Coffee & Tea', 'Food', 'Nightlife', 'Wine Bars', 'Bars', 'Restaurants'}",34.416454,-119.695668,Aperitivo,47,5.0,"[0, 0, 0, 0, 48]","[0, 0, 0, 0, '2022-01-14 05:03:21']"
712 N Milpas St,True,Hlx8S2GLF7hMuIKx4sU-gg,"{'Fish & Chips', 'Mexican', 'Restaurants'}",34.4285995,-119.6882227,Cesar's Place,117,4.0,"[19, 6, 10, 30, 55]","['2021-01-08 20:14:42', '2017-03-02 23:07:46', '2020-05-11 18:07:53', '2021-10-29 01:20:06', '2022-01-02 04:49:15']"
2819 State St,True,HrnSaz2f1WUEoAQQ6iD6gw,"{'Hotels', 'Italian', 'Nightlife', 'Event Planning & Services', 'Hotels & Travel', 'Restaurants'}",34.4382259301,-119.7250353901,Lemon Tree Inn,270,2.5,"[104, 31, 27, 53, 57]","['2021-12-31 00:35:08', '2021-06-16 06:00:02', '2021-06-07 00:58:52', '2021-07-16 05:00:28', '2021-12-06 04:36:38']"
425 State St,True,I0jFTYVDs-WHwKR2XHQlRA,"{'Asian Fusion', 'Thai', 'American (New)', 'Pop-Up Restaurants', 'Restaurants'}",34.4162591,-119.6952494,Zen Yai Thai Cuisine,347,4.0,"[19, 33, 55, 103, 142]","['2021-04-18 18:31:12', '2021-05-27 18:56:36', '2021-10-16 04:22:16', '2021-04-11 07:11:47', '2021-10-12 15:54:31']"
"131 Anacapa St, Ste C",True,IDtLPgUrqorrpqSLdfMhZQ,"{'Breakfast & Brunch', 'Sandwiches', 'Coffee & Tea', 'Food', 'Bakeries', 'Salad', 'Restaurants'}",34.4144445,-119.6906718,Helena Avenue Bakery,389,4.0,"[20, 24, 38, 86, 233]","['2021-11-27 17:36:53', '2021-08-06 16:30:26', '2022-01-06 05:20:14', '2022-01-16 22:28:56', '2022-01-09 21:44:32']"
716 State St,False,IG-CwPl5mb6-hmpFjXUIvA,"{'Asian Fusion', 'Live/Raw Food', 'Food Delivery Services', 'Poke', 'Seafood', 'Food', 'Ice Cream & Frozen Yogurt', 'Restaurants'}",34.419247,-119.698394,Choppa Poke,52,4.0,"[12, 1, 3, 4, 33]","['2022-01-17 02:24:51', '2019-10-29 02:10:20', '2021-08-23 21:05:01', '2020-12-09 20:47:30', '2021-11-21 22:02:08']"
,True,IRBhPAC4ZoDpXazpoB3epQ,"{'Desserts', 'Food Delivery Services', 'Food', 'Event Planning & Services', 'Caterers', 'Bakeries'}",34.420334,-119.7107494,Good Stuff Baked Treats,9,5.0,"[0, 0, 0, 1, 8]","[0, 0, 0, '2017-04-22 06:46:40', '2021-11-06 21:09:59']"
1972 Cliff Dr,True,IRyKDIF51M0GcqS8yfPcYA,"{'Breakfast & Brunch', 'Nightlife', 'American (Traditional)', 'Bars', 'Restaurants'}",34.4022202,-119.7228003,Mesa Cafe,374,4.0,"[34, 37, 47, 136, 130]","['2021-11-01 18:31:11', '2021-06-07 19:28:39', '2021-05-01 02:15:01', '2021-12-23 03:37:20', '2021-11-19 23:22:07']"
905 State St,True,IXQH9-nnTWZFgBF0V3MH-A,"{'Italian', 'Sandwiches', 'Pizza', 'Restaurants'}",34.4206139,-119.7009473,Cali-Forno Pizzeria,16,4.0,"[4, 0, 1, 0, 11]","['2022-01-05 07:05:20', 0, '2021-08-28 02:37:07', 0, '2022-01-15 04:00:47']"
1117 State St,True,IZZ7J14VnJGyUqYH1tgT6w,"{'Farmers Market', 'Vegetarian', 'Beer', 'Tapas/Small Plates', 'Wine Bars', 'Cafes', 'Food', 'Nightlife', 'Wine & Spirits', 'Beer Bar', 'Vegan', 'Bars', 'Restaurants'}",34.4226158,-119.7040291,Satellite,159,4.5,"[4, 4, 10, 15, 130]","['2022-01-12 07:45:19', '2021-12-14 17:44:51', '2021-10-30 20:46:48', '2021-09-18 20:07:52', '2022-01-06 21:08:54']"
34 Anacapa St,False,IljCDlZnTftfZEruqa4sRQ,"{'Wineries', 'Arts & Entertainment', 'Shopping', 'Food', 'Nightlife', 'Art Galleries', 'Wine Bars', 'Bars', 'Restaurants'}",34.414453,-119.689178,The Funk Zone,43,4.0,"[2, 4, 7, 13, 17]","['2016-04-04 20:30:49', '2019-12-29 00:25:41', '2020-02-12 02:40:38', '2021-01-19 18:41:22', '2021-04-29 03:58:31']"
"1114 State St, Ste 14",True,IoihJkcF2FcE-sHOneat-A,"{'French', 'Ethiopian', 'Restaurants'}",34.4229419988,-119.7030299616,Petit Valentien,342,4.0,"[28, 19, 33, 85, 190]","['2021-12-12 04:20:43', '2018-03-03 00:30:28', '2020-10-10 03:32:24', '2020-02-17 01:38:28', '2021-10-02 22:38:26']"
222 N Milpas St,False,Iw3lHwjwIjvfsgVOwpF_UQ,"{'Specialty Food', 'Shopping', 'Food', 'Grocery', 'Flowers & Gifts', 'Florists'}",34.4250274,-119.6815129,Trader Joe's,47,4.0,"[7, 4, 2, 5, 31]","['2021-05-05 19:58:15', '2021-07-14 19:11:05', '2020-05-21 13:18:46', '2020-07-11 20:28:08', '2021-09-12 20:36:03']"
175 N Turnpike Rd,False,J2gkKCIOhmMTDIt0CKkXAg,"{'Beer', 'Car Wash', 'Auto Parts & Supplies', 'Food', 'Automotive', 'Wine & Spirits', 'Gas Stations'}",34.4434425,-119.7897616,Turnpike Shell & The Point Market,42,3.0,"[14, 5, 1, 7, 15]","['2020-06-13 03:30:55', '2019-07-15 22:57:01', '2009-05-03 14:55:04', '2021-05-08 02:24:38', '2021-07-25 01:45:00']"
619 East Gutierrez St,False,JB5tlC_7u5IHT2Z_GHN-qw,"{'Food Delivery Services', 'Personal Chefs', 'Food', 'Event Planning & Services', 'Caterers', 'Salad', 'Restaurants'}",34.4229928,-119.686982,Daily Greenz,8,5.0,"[0, 0, 1, 0, 8]","[0, 0, '2014-02-12 23:17:05', 0, '2020-11-04 16:42:00']"
1114 State St,True,JWFpjvCc_nkNDVtMPx1ZGg,"{'Burgers', 'Food Delivery Services', 'Pizza', 'Food', 'Event Planning & Services', 'Caterers', 'Restaurants'}",34.4230427,-119.7032863,Bogo SB,12,4.5,"[1, 1, 0, 2, 8]","['2020-05-06 04:12:06', '2020-07-30 13:53:59', 0, '2021-01-28 07:28:34', '2021-08-28 00:31:31']"
832 N Milpas St,True,JZrspVMm79n_iHTYftkI0g,"{'Food', 'Bakeries', 'Mexican', 'Restaurants'}",34.4301395303,-119.6897619065,La Tapatia Bakery,56,4.0,"[8, 1, 4, 11, 32]","['2021-10-02 12:18:22', '2019-04-27 01:54:16', '2021-08-29 16:58:39', '2021-08-29 11:27:36', '2021-10-05 07:34:42']"
418 State St,True,JiBxL733qjm8WAddu-RzDQ,"{'Seafood', 'Food', 'Event Planning & Services', 'Caterers', 'Food Trucks', 'Restaurants'}",34.4164012651,-119.6946343303,Broad Street Oyster Company,71,5.0,"[0, 1, 1, 8, 63]","[0, '2019-04-15 06:23:05', '2020-01-04 22:33:27', '2020-06-08 05:56:50', '2020-11-29 02:45:18']"
905 State St,True,JjmmSW_QQh2Db4fuIEMATA,"{'Italian', 'Pizza', 'Sandwiches', 'Fast Food', 'Food', 'Chicken Wings', 'Gelato', 'Salad', 'Restaurants'}",34.4206088162,-119.7009534396,Persona Pizzeria,624,4.0,"[68, 45, 64, 134, 337]","['2021-01-18 02:26:07', '2021-02-13 07:17:22', '2019-09-30 03:12:09', '2021-01-07 22:19:14', '2022-01-09 23:09:10']"
428 Chapala St,True,JoD_Fkf2rl3s3Ms5Sfb7uw,"{'Nutritionists', 'Health & Medical', 'Specialty Food', 'Food Delivery Services', 'Food', 'Fruits & Veggies'}",34.4156079,-119.6960641,Healthy Warrior Meal Prep,12,5.0,"[0, 0, 0, 0, 12]","[0, 0, 0, 0, '2021-10-13 15:19:42']"
111 State St,True,JpwG8sDNsHuD0f6NF6YuGw,"{'Pizza', 'Restaurants'}",34.413168,-119.691316,Rusty's Pizza Parlor,164,3.0,"[43, 16, 23, 36, 49]","['2022-01-06 21:11:26', '2021-07-17 03:14:01', '2021-11-27 07:57:03', '2021-11-19 00:16:35', '2022-01-18 19:14:33']"
503 State St,True,Js3m_GdqNUGnEgXJ8WMtfQ,"{'Asian Fusion', 'Bubble Tea', 'Acai Bowls', 'Food', 'Vegan', 'Restaurants'}",34.416504,-119.6956177,Hana Kitchen,253,3.0,"[71, 32, 22, 57, 76]","['2022-01-08 03:18:16', '2021-11-28 23:25:44', '2021-08-23 15:48:14', '2021-08-22 23:15:07', '2021-09-08 02:55:04']"
1180 University Ctr,True,KIpghikMrBbxx75tx_ZJUw,"{'Coffee & Tea', 'Food'}",34.411595,-119.848143,Starbucks,13,3.0,"[4, 2, 2, 0, 5]","['2021-10-13 17:10:33', '2019-05-29 22:54:13', '2020-03-03 21:13:50', 0, '2018-06-09 21:59:03']"
202 State St,False,KSYONgGtrK0nKXfroB-bwg,"{'Spanish', 'Modern European', 'Seafood', 'Venues & Event Spaces', 'Nightlife', 'Event Planning & Services', 'Cocktail Bars', 'Tapas Bars', 'Bars', 'Restaurants'}",34.4142041115,-119.6916435799,Loquita,914,4.5,"[34, 44, 57, 136, 663]","['2022-01-10 02:27:58', '2021-12-29 05:47:20', '2022-01-16 06:02:30', '2022-01-17 17:20:15', '2022-01-10 05:55:37']"
324 W Montecito St,True,KTlABGqop4Q7FzD7lSkHJQ,"{'Food', 'Grocery'}",34.4112256,-119.6972939,Santa Cruz Markets,28,4.0,"[2, 1, 4, 14, 8]","['2021-07-30 07:49:41', '2014-07-06 20:47:48', '2015-05-21 17:53:59', '2021-06-16 06:37:24', '2021-11-29 05:06:36']"
3025 De La Vina St,False,Kthnb7PjDSd7FsBp4wqoHA,"{'Beer', 'Florists', 'Specialty Food', 'Health Markets', 'Shopping', 'Food', 'Grocery', 'Wine & Spirits', 'Flowers & Gifts'}",34.4389627,-119.728949,Trader Joe's,85,4.5,"[2, 4, 2, 33, 47]","['2021-04-20 20:22:08', '2020-06-25 16:12:22', '2015-06-18 21:33:17', '2019-01-04 00:07:20', '2021-12-22 03:58:07']"
1 State St,False,L4-_gPiqsuX50JN_-qUhNQ,"{'Cafes', 'Coffee & Tea', 'Food', 'Bakeries', 'Patisserie/Cake Shop', 'Restaurants'}",34.4122052573,-119.689592,Jeannine’s American Bakery & Restaurant,41,5.0,"[0, 1, 0, 6, 34]","[0, '2021-12-01 16:22:32', 0, '2022-01-02 21:01:40', '2022-01-19 17:31:21']"
5221 Cheadle Hall,True,L8rhRyXtpq2nCE0il1KN_g,"{'Burgers', 'Cafes', 'Sandwiches', 'Restaurants'}",34.4157346304,-119.846678722,Coral Tree Cafe,28,3.0,"[6, 2, 9, 7, 5]","['2019-10-25 22:01:52', '2017-04-10 20:36:14', '2018-10-26 20:28:41', '2019-10-01 17:29:02', '2019-02-16 05:59:07']"
University Center Bldg 558,True,LEo6sBsQz3xrpKW-DQjTWQ,"{'Fast Food', 'Chinese', 'Restaurants'}",34.4115663406,-119.8478268587,Panda Express,18,2.5,"[5, 3, 5, 2, 3]","['2021-11-16 22:12:52', '2016-08-16 21:21:11', '2019-05-19 18:51:07', '2017-02-22 19:54:39', '2021-02-08 05:29:00']"
403 W Pueblo St,True,LMm555z8BReDxgkpF_TEug,"{'Delis', 'Coffee & Tea', 'Food', 'Salad', 'Restaurants'}",34.4290942,-119.7231075,Park Place Deli,9,4.0,"[1, 0, 1, 2, 5]","['2016-12-06 21:43:23', 0, '2016-07-04 22:50:36', '2019-05-07 16:39:33', '2019-12-11 20:43:14']"
130 N Calle Cesar Chavez,True,LsniEK_m_Jbj7JMbT4eRxQ,"{'Delis', 'Restaurants'}",34.4206191,-119.6842739,101 Deli,28,4.5,"[0, 1, 2, 4, 21]","[0, '2022-01-18 21:13:29', '2022-01-07 02:57:32', '2016-10-17 19:33:16', '2021-09-15 20:50:43']"
23 E Canon Perdido St,True,LtxG9DTXCFpteVkD4SGBlw,"{'Music Venues', 'Wine Tasting Room', 'Champagne Bars', 'Arts & Entertainment', 'Bakeries', 'Food', 'Nightlife', 'Jazz & Blues', 'Restaurants', 'Wine Bars', 'Tapas Bars', 'Bars', 'Wineries'}",34.421359,-119.7000324,Sevtap Winery Tasting Room,307,4.0,"[37, 8, 18, 52, 197]","['2021-06-23 22:41:36', '2019-05-11 01:17:44', '2018-07-15 20:24:40', '2021-10-20 21:17:43', '2021-12-23 21:10:06']"
1208 State St,True,LuPK46HMxRYEVTXVbBCR1g,"{'Farmers Market', 'Asian Fusion', 'Indonesian', 'Desserts', 'Tapas/Small Plates', 'Food', 'Nightlife', 'Cocktail Bars', 'Tapas Bars', 'Bars', 'Restaurants'}",34.4237005,-119.7046377,Sama Sama Kitchen,477,4.0,"[47, 47, 51, 94, 253]","['2021-09-18 03:58:02', '2022-01-19 05:26:03', '2021-12-29 04:26:20', '2022-01-13 05:13:31', '2022-01-04 23:02:44']"
1024 Coast Village Rd,True,M3LZKA-tVFRJyPeKA3_2OA,"{'Food', 'Bakeries', 'Cafes', 'Restaurants'}",34.4227834,-119.6518454,Merci To Go,9,4.5,"[0, 0, 0, 3, 6]","[0, 0, 0, '2020-12-29 02:06:36', '2019-08-29 21:44:41']"
1112 State St,True,M8GN3mTBVC6iA80eRIdzgg,"{'Food', 'Food Delivery Services'}",34.4228637,-119.703516,DeliverySB,14,4.0,"[2, 0, 1, 2, 9]","['2021-02-15 05:10:01', 0, '2020-11-14 17:57:27', '2020-10-04 08:14:55', '2021-03-22 04:03:19']"
32 Anacapa St,False,MAIfD4kJDCydgoD1l2b_vw,"{'Beer', 'Arts & Entertainment', 'Food', 'Nightlife', 'Wine & Spirits', 'Wine Bars', 'Bars', 'Wineries'}",34.4142112,-119.6887567,Corks n' Crowns,276,4.0,"[26, 16, 22, 84, 132]","['2019-11-10 22:55:42', '2018-05-27 22:13:43', '2020-11-25 04:27:15', '2021-07-17 16:09:06', '2021-08-28 04:59:30']"
220 Stearns Wharf,True,MJI-bNIn3QDgiGggm9Wp1w,"{'American (Traditional)', 'Breakfast & Brunch', 'Seafood', 'Restaurants'}",34.4092096,-119.6854512,Moby Dick Restaurant,871,3.0,"[206, 179, 152, 156, 194]","['2021-12-20 00:54:02', '2022-01-04 01:28:26', '2021-12-02 05:51:53', '2022-01-11 05:32:29', '2022-01-15 06:58:16']"
1260 Channel Dr,False,MX2YGruhd0sMNHZGK7p5-Q,"{'Breakfast & Brunch', 'Italian', 'Seafood', 'American (New)', 'Restaurants'}",34.417214,-119.642527,Bella Vista,261,4.0,"[16, 26, 38, 66, 119]","['2020-03-07 22:55:36', '2020-02-15 19:52:09', '2020-07-25 00:03:45', '2020-02-11 18:29:45', '2020-08-26 17:50:22']"
324 State St,True,MbzgGsMQpGyVrUJXi_Jw0Q,"{'Breakfast & Brunch', 'Coffee & Tea', 'Food', 'American (New)', 'Restaurants'}",34.4157298,-119.6936606,Dawn Patrol,807,4.0,"[25, 44, 103, 184, 463]","['2021-10-10 16:36:23', '2021-10-31 20:49:05', '2021-11-13 21:14:15', '2021-10-23 17:23:58', '2022-01-06 19:13:37']"
,False,MsqmvxOvkOnofmLlFM1iHg,"{'Farmers Market', 'Specialty Schools', 'Cooking Classes', 'Arts & Crafts', 'Shopping', 'Personal Chefs', 'Food', 'Cooking Schools', 'Event Planning & Services', 'Education'}",34.4496518576,-119.7332053326,Market Forays,8,4.5,"[0, 1, 0, 0, 7]","[0, '2015-08-03 00:03:42', 0, 0, '2019-03-02 19:28:37']"
14 W Figueroa St,True,MwJsk91FJ73YzzmpVaJihQ,"{'Desserts', 'Food', 'Mexican', 'Nightlife', 'Event Planning & Services', 'Caterers', 'Salad', 'Bars', 'Restaurants'}",34.4220557,-119.7037481,Los Arroyos Mexican Restaurant & Take Out,448,4.0,"[37, 33, 67, 122, 196]","['2021-12-28 02:56:24', '2021-12-06 20:47:30', '2021-08-28 22:34:46', '2021-08-26 00:31:47', '2021-12-29 04:20:49']"
32 Anacapa St,False,MxmcGeTRzLPaTwhDm1txSQ,"{'Beer', 'Wine & Spirits', 'Food'}",34.4142112,-119.6887628,Craft Beer Club,20,2.0,"[12, 3, 1, 1, 4]","['2021-09-24 18:08:17', '2017-05-17 06:11:19', '2013-12-12 21:42:55', '2019-04-29 15:04:07', '2019-09-04 16:57:14']"
3754 San Remo Dr,False,N12Pwub9Tj-5AhuPfbj-Mg,"{'Food', 'Mexican', 'Street Vendors', 'Event Planning & Services', 'Caterers', 'Food Trucks', 'Restaurants'}",34.4429887,-119.7453637,Big Joe's Tacos,35,4.5,"[2, 4, 1, 2, 27]","['2019-09-09 03:53:00', '2021-10-14 14:17:34', '2016-03-14 07:55:39', '2017-03-19 16:35:17', '2021-11-16 01:27:54']"
721 Cliff Dr,True,NAWO3P0rl396h0kdRXwuFA,"{'American (Traditional)', 'Restaurants'}",34.406071761,-119.697696361,JSB Cafe at Santa Barbara City College,16,4.0,"[2, 2, 1, 2, 9]","['2019-10-24 19:13:40', '2015-02-27 20:12:11', '2018-01-29 07:56:35', '2019-03-15 03:32:25', '2018-11-14 19:05:55']"
"27 West Anapamu St, Ste 104",False,NDwoKO79_T49UEKVDlHd3A,"{'Transportation', 'Limos', 'Arts & Entertainment', 'Tours', 'Food', 'Wine Tours', 'Hotels & Travel', 'Wineries'}",34.4224525,-119.7050212,Sustainable Wine Tours,358,5.0,"[1, 0, 1, 0, 363]","['2011-09-08 01:35:26', 0, '2017-01-17 22:16:09', 0, '2022-01-13 19:45:11']"
601 Paseo Nuevo,True,NIQWO-Q_F598XlAvZnFVCA,"{'Burgers', 'Nightlife', 'American (New)', 'American (Traditional)', 'Bars', 'Lounges', 'Restaurants'}",34.4186116,-119.7001508,Eureka!,961,4.0,"[111, 108, 131, 261, 419]","['2021-12-21 00:47:56', '2021-07-06 02:04:16', '2021-12-29 04:56:33', '2021-12-05 03:37:49', '2022-01-10 00:01:43']"
819-B State St,True,NORF647ibBQ4U-VNMgzSLg,"{'Cafes', 'Acai Bowls', 'Coffee & Tea', 'Food', 'Juice Bars & Smoothies', 'Restaurants'}",34.4196823736,-119.7003016706,Oakberry Açaí Bowls and Smoothies,77,4.5,"[4, 3, 3, 8, 59]","['2021-05-20 20:36:15', '2021-09-06 21:35:26', '2021-04-28 17:51:00', '2021-11-19 00:38:41', '2021-12-22 19:05:43']"
,True,NTWeW_PgQjIZ38h8St7mCQ,"{'Custom Cakes', 'Desserts', 'Food', 'Bakeries', 'Patisserie/Cake Shop'}",34.420334,-119.7107494,Posies & Sugar,14,5.0,"[0, 0, 0, 1, 13]","[0, 0, 0, '2018-11-24 19:06:06', '2022-01-14 21:53:21']"
"651 Paseo Nuevo, Ste 305",True,Nbht3URjeV94507do0goEw,"{'Convenience Stores', 'Health Markets', 'Specialty Food', 'Food', 'Juice Bars & Smoothies', 'Ice Cream & Frozen Yogurt', 'Vegan', 'Restaurants'}",34.4189924525,-119.7000565007,Pressed,111,4.5,"[6, 8, 10, 20, 74]","['2020-03-30 00:04:18', '2021-11-20 00:55:49', '2020-01-12 22:16:49', '2021-11-14 16:01:47', '2021-11-08 17:29:57']"
205 W Montecito St,False,NfHhm-3-zyeBBBwX0rNonQ,"{'Food', 'Grocery', 'Specialty Food', 'Fruits & Veggies'}",34.4121276,-119.6954078,The Berry Man,6,4.5,"[1, 0, 0, 0, 5]","['2019-11-06 22:40:43', 0, 0, 0, '2020-03-31 19:49:51']"
1046 - A Coast Village Rd,True,NmJX_LZ7ShIZqspI31RVZA,"{'Coffee & Tea', 'Food'}",34.421735,-119.650254,Starbucks,85,3.5,"[16, 16, 12, 22, 23]","['2021-12-21 14:03:37', '2021-12-27 20:46:29', '2021-11-17 07:22:49', '2019-08-12 23:32:04', '2021-12-27 00:35:36']"
2028 Cliff Dr,True,NmexnuLm3zyKxsgwbCe7ug,"{'Ice Cream & Frozen Yogurt', 'Food'}",34.4024970386,-119.7241310081,The Lovin Spoonful,67,4.5,"[1, 1, 1, 9, 55]","['2021-03-13 21:15:35', '2021-05-07 17:11:17', '2019-07-07 22:42:54', '2021-04-16 22:15:29', '2021-08-16 02:59:25']"
3707 State St,True,NuMR1xJu6Ewxaicc4yLOFw,"{'Chicken Shop', 'Sandwiches', 'Fast Food', 'Event Planning & Services', 'Caterers', 'Chicken Wings', 'Restaurants'}",34.440156,-119.742963,Chick-fil-A,232,4.0,"[38, 15, 21, 44, 125]","['2021-09-09 02:19:29', '2021-03-19 04:14:53', '2021-07-14 21:06:07', '2021-12-22 05:05:38', '2022-01-04 06:14:23']"
"22 N Milpas St, Ste A",False,O2lFAWD2WXXx5EKkzPutWQ,"{'Thai', 'Restaurants'}",34.422246,-119.679611,Your Place Thai Restaurant,434,4.0,"[46, 38, 47, 112, 198]","['2022-01-02 00:53:23', '2021-07-08 21:06:39', '2021-08-31 13:50:52', '2021-09-29 02:57:33', '2021-12-28 08:41:46']"
19 E Mason St,False,O3jPfTDRn5_1O3ZM_LuxQw,"{'Arts & Entertainment', 'Food', 'Wine Tasting Room', 'Wineries'}",34.4135892,-119.6900928,Margerum Wine Company,139,4.5,"[16, 5, 5, 14, 102]","['2021-09-25 22:40:08', '2021-04-02 17:52:43', '2021-06-17 23:07:14', '2021-12-01 19:49:51', '2022-01-17 08:19:39']"
120 Santa Barbara St,False,OCW1gs6Rjn90_x5EV0PuaA,"{'Wine Tasting Room', 'Arts & Entertainment', 'Food', 'Nightlife', 'Wine Bars', 'Bars', 'Wineries'}",34.4158531,-119.6885284,Fox Wine,69,4.5,"[4, 6, 4, 6, 49]","['2021-09-04 21:43:05', '2022-01-17 07:39:15', '2017-08-16 04:27:08', '2020-06-15 18:50:26', '2021-08-24 21:40:54']"
3558 State St,True,ODvaMIpjD6bHiwQ9-kmECw,"{'Coffee & Tea', 'Food', 'Restaurants'}",34.4404899,-119.7398757,Vices & Spices From Around the World,81,4.5,"[1, 7, 6, 14, 55]","['2010-12-06 07:11:52', '2019-06-05 16:14:46', '2019-09-05 21:23:33', '2018-11-16 20:16:05', '2022-01-04 20:15:55']"
416 State St,True,OM5beWRkxZSu1TShUC3EDw,"{'Cajun/Creole', 'Specialty Food', 'Seafood', 'Food', 'Restaurants'}",34.4164009433,-119.6945476727,The Drunken Crab,595,4.0,"[47, 41, 45, 124, 356]","['2021-11-22 03:51:49', '2021-09-13 03:48:41', '2021-12-06 06:15:59', '2021-10-24 09:00:05', '2021-11-11 05:34:10']"
815 E Figueroa St,True,OMWhamtXhqlYCj66MqcxuQ,"{'Restaurants', 'Soul Food', 'Comfort Food', 'Ethiopian'}",34.4314498,-119.6938499,Aksum Restaurant,9,5.0,"[0, 0, 0, 1, 8]","[0, 0, 0, '2021-08-01 06:51:42', '2021-10-09 22:42:10']"
3939 State St,False,OQKKEbPoXqZwSF5CiNWZeQ,"{'Pharmacy', 'Convenience Stores', 'Drugstores', 'Shopping', 'Food', 'Health & Medical'}",34.4394,-119.7532,CVS Pharmacy,58,1.5,"[46, 4, 3, 1, 7]","['2021-12-25 21:44:38', '2019-04-15 20:57:12', '2019-03-29 02:31:42', '2019-01-20 21:16:11', '2021-03-23 07:05:25']"
,False,OjHy_M9BrUmdJ4L3KCCCWQ,"{'Cooking Classes', 'Arts & Crafts', 'Food Delivery Services', 'Shopping', 'Food', 'Event Planning & Services', 'Caterers'}",34.420334,-119.7107494,Nimita's Cuisine,28,4.5,"[1, 2, 0, 1, 24]","['2014-04-29 03:42:01', '2015-12-13 22:10:58', 0, '2016-02-26 18:36:51', '2021-11-16 20:21:51']"
1808 Cliff Dr,True,OyFxR5E2HBy-K2-0AxCtFg,"{'Chicken Wings', 'Pizza', 'Sandwiches', 'Restaurants'}",34.4015916,-119.7206821,Domino's Pizza,42,2.0,"[25, 3, 3, 7, 5]","['2022-01-18 06:17:00', '2017-04-08 02:59:56', '2017-05-25 01:33:14', '2019-02-12 20:56:27', '2017-08-24 01:41:29']"
"185 S Patterson Ave, Ste D",True,OzGk7arJv6FPrWqaYSvyKQ,"{'International Grocery', 'Korean', 'Food', 'Grocery', 'Restaurants'}",34.4356695,-119.8097733,Choi's Oriental Market,175,4.5,"[9, 3, 7, 36, 123]","['2022-01-09 04:58:28', '2021-02-14 04:19:09', '2021-01-28 21:58:00', '2021-10-19 04:35:21', '2022-01-14 22:24:32']"
2840 B De La Vina St,False,PBXFaKio7FJ-4JehJGh_gg,"{'Pizza', 'Restaurants'}",34.4376229,-119.7262251,Fattes Pizza,10,4.5,"[0, 1, 1, 2, 6]","[0, '2021-08-07 01:48:01', '2022-01-01 06:11:12', '2021-08-07 06:19:49', '2022-01-09 17:30:03']"
3943 State St,False,PBtNupbFFNj3iV1E1kr5bg,"{'Fashion', 'Wholesale Stores', 'Shopping', 'Food', 'Grocery', 'Department Stores'}",34.4395323,-119.7515165,Smart & Final Extra!,24,2.5,"[14, 1, 3, 1, 7]","['2021-03-26 22:30:33', '2017-08-28 01:59:50', '2021-10-23 04:40:51', '2019-07-06 14:18:36', '2020-09-12 04:03:05']"
"3925 State St, Unit A",True,PHSda9zEwtFicCICD6TP1A,"{'Salad', 'Greek', 'Mediterranean', 'Restaurants'}",34.4401464276,-119.7523719474,Luna Grill,225,4.0,"[28, 29, 31, 45, 108]","['2021-06-15 00:42:03', '2022-01-09 17:07:45', '2021-10-24 15:04:35', '2022-01-17 00:29:01', '2022-01-12 02:21:42']"
819 Anacapa St,False,PPcz-0UtIJ8O7xDT551y2g,"{'Cafes', 'Pizza', 'Nightlife', 'American (New)', 'Cocktail Bars', 'Wine Bars', 'Tapas Bars', 'Salad', 'Bars', 'Restaurants'}",34.4211464,-119.6988864,Intermezzo By Wine Cask,141,4.5,"[5, 2, 15, 24, 98]","['2021-12-10 01:29:32', '2018-07-07 01:18:27', '2020-01-03 01:51:46', '2019-06-09 00:01:45', '2022-01-16 03:31:16']"
3404 State St,True,PVo1orQ9R7ZHfg90QACh-w,"{'Ice Cream & Frozen Yogurt', 'Thai', 'Desserts', 'Food', 'Chicken Wings', 'Restaurants'}",34.4406266,-119.7367796,Your Choice,346,4.0,"[24, 16, 40, 93, 182]","['2020-05-15 19:30:34', '2021-06-26 19:16:18', '2021-11-12 02:00:05', '2021-11-14 16:13:01', '2022-01-15 14:27:29']"
128 E Canon Perdido St,True,PWWGbkPC_agn-4s1Hv1W5A,"{'Coffee & Tea', 'Food'}",34.4222976,-119.6984801,Handlebar Coffee Roasters,1048,4.5,"[15, 31, 55, 193, 771]","['2021-08-29 05:08:31', '2021-08-24 17:09:31', '2021-11-30 21:31:49', '2021-11-22 07:04:23', '2022-01-18 01:33:04']"
3130 State St,True,P_QAD4_iMgqTaWd5On_n3g,"{'Asian Fusion', 'Vegetarian', 'Thai', 'Noodles', 'Restaurants'}",34.440696,-119.732304,TAP Thai Cuisine,332,3.5,"[40, 35, 42, 88, 136]","['2021-10-08 15:29:08', '2021-09-30 04:27:54', '2021-09-29 18:59:54', '2020-07-22 02:10:59', '2021-10-09 01:12:49']"
205 Santa Barbara St,True,PaqDZUu76fZtMvcYqCEBig,"{'Breweries', 'Food', 'Brewpubs'}",34.4161821,-119.6897762,Rincon Brewery,32,4.0,"[2, 3, 1, 6, 20]","['2020-10-22 00:09:52', '2021-05-23 00:36:14', '2021-05-06 23:34:16', '2021-06-11 02:54:48', '2021-11-28 02:37:57']"
,False,PilMA5jBSjfh2rlCLG50Cw,"{'Tacos', 'Food', 'Mexican', 'Event Planning & Services', 'Caterers', 'Food Trucks', 'Restaurants'}",34.420334,-119.7107494,Blue Corn Tacos Catering,11,5.0,"[0, 0, 0, 0, 11]","[0, 0, 0, 0, '2021-08-23 01:18:56']"
1915 De La Vina St,False,PrJEYGjlhaF0BSZk_Q-uPg,"{'Mexican', 'Restaurants'}",34.4281666112,-119.7164055979,El Pastorcito,5,5.0,"[0, 0, 0, 0, 5]","[0, 0, 0, 0, '2021-11-28 04:51:03']"
821 N Milpas Street,True,PsO9LleYQJlFc_r-DJxVzg,"{'Breakfast & Brunch', 'Tacos', 'Tex-Mex', 'Fast Food', 'Mexican', 'Restaurants'}",34.429167,-119.689368,Taco Bell,30,3.5,"[10, 1, 2, 7, 12]","['2020-09-14 21:44:57', '2016-08-29 02:13:59', '2021-06-29 16:48:55', '2021-08-30 06:50:10', '2021-06-14 02:02:09']"
824 Reddick St,False,PtaFDKkhxSjcXz6dVM0uLw,"{'Food', 'Bakeries', 'Desserts'}",34.4253387,-119.6849868,Deux Bakery,48,4.5,"[1, 1, 2, 5, 43]","['2020-12-13 01:59:26', '2018-09-28 18:51:17', '2021-07-05 19:49:57', '2020-01-18 07:13:58', '2021-11-17 19:14:36']"
"2840 De La Vina St, Ste A",False,Q-ZqJY2AXNJIGj-DmlzRuw,"{'Beer', 'Food', 'Wine & Spirits'}",34.4376229,-119.7262251,Plaza Liquors,6,2.0,"[4, 0, 1, 0, 1]","['2022-01-07 04:27:27', 0, '2020-08-10 17:31:49', 0, '2013-12-10 21:28:03']"
23 E De La Guerra St,True,QBNATcq7Stx9LxcSq16W7w,"{'Wine Tasting Room', 'Beer', 'Arts & Entertainment', 'Food', 'Nightlife', 'Wine & Spirits', 'Wine Bars', 'Bars', 'Wineries'}",34.420418,-119.698904,Jamie Slone Wines,210,4.5,"[7, 4, 7, 25, 170]","['2021-05-29 17:07:44', '2021-04-10 21:21:25', '2021-12-28 08:01:11', '2021-11-16 23:03:24', '2021-10-19 20:54:23']"
209 W Carrillo St,False,QFNrQo2BGE62G-FbIlWWgw,"{'Beer', 'Karaoke', 'Food', 'Nightlife', 'Dive Bars', 'Wine & Spirits', 'Bars'}",34.4189718,-119.7041907,Mels,32,3.5,"[5, 3, 3, 7, 14]","['2018-01-04 07:29:01', '2020-03-06 00:46:21', '2020-08-02 01:26:34', '2018-09-04 05:23:42', '2021-08-26 22:47:42']"
791 Chapala St,True,QFh-h_OZ5Io-mBk32HN28A,"{'Burgers', 'Breakfast & Brunch', 'Chicken Shop', 'Cafes', 'Sandwiches', 'American (New)', 'Salad', 'Restaurants'}",34.4182687,-119.7005116,Kyle's Kitchen,638,4.0,"[41, 49, 88, 164, 312]","['2021-08-11 00:34:15', '2021-12-04 00:15:26', '2021-10-23 20:50:20', '2021-10-13 19:07:41', '2022-01-18 00:41:04']"
"315 Meigs Rd, Ste F",True,QLHgjBHBoeIUoEvIPvjHnw,"{'Beer Bar', 'Burgers', 'Beer', 'Chicken Shop', 'Food', 'Nightlife', 'American (New)', 'Ice Cream & Frozen Yogurt', 'Wine & Spirits', 'American (Traditional)', 'Salad', 'Bars', 'Restaurants'}",34.4007984,-119.7226708,Mesa Burger - Santa Barbara,442,4.0,"[26, 41, 49, 87, 264]","['2022-01-06 01:11:59', '2021-09-11 22:01:04', '2021-05-27 21:49:28', '2021-08-21 23:26:25', '2022-01-04 05:21:49']"
,False,QNilrbTi8912ye2ztnBMpA,"{'Transportation', 'Limos', 'Arts & Entertainment', 'Tours', 'Food', 'Wine Tours', 'Local Flavor', 'Hotels & Travel', 'Wineries'}",34.42,-119.7,DeeTours of Santa Barbara,188,5.0,"[0, 0, 0, 5, 183]","[0, 0, 0, '2017-07-25 18:38:45', '2019-11-24 16:49:28']"
36 A S Calle Cesar Chavez,False,QcMPEiTXY2wS5dKZdzIW0w,"{'Food', 'Arts & Entertainment', 'Wine Tasting Room', 'Wineries'}",34.4174659791,-119.681281756,Whitcraft Winery,34,4.0,"[4, 3, 3, 6, 18]","['2020-12-29 23:00:13', '2011-12-01 22:32:08', '2012-09-16 21:08:38', '2012-10-23 16:59:49', '2018-10-10 23:41:05']"
609 N Milpas St,True,QfXEdQpBojorGinfCnrKTA,"{'Fast Food', 'Breakfast & Brunch', 'Sandwiches', 'Restaurants'}",34.4273816,-119.687148,Subway,17,2.5,"[5, 5, 4, 2, 1]","['2021-09-20 12:01:59', '2018-10-22 23:25:41', '2017-05-28 06:00:50', '2014-10-06 20:28:16', '2018-06-20 06:56:07']"
227 N Nopal St,True,Qi-A4ZgcEuSnq_8Fpfo_3Q,"{'Festivals', 'Religious Organizations', 'Arts & Entertainment', 'Mexican', 'Churches', 'Restaurants'}",34.4230803,-119.6840083,Our Lady of Guadalupe Mercado,8,4.5,"[0, 0, 0, 3, 5]","[0, 0, 0, '2012-08-15 23:17:14', '2018-08-04 02:47:15']"
901 E Cabrillo Blvd,True,Qkg16mN-8QR66gjzg6gMyw,"{'Italian', 'Mediterranean', 'Venues & Event Spaces', 'Moroccan', 'Nightlife', 'Event Planning & Services', 'Bars', 'Restaurants'}",34.417321,-119.6722259521,Convivo Restaurant and Bar,445,4.0,"[45, 44, 53, 79, 239]","['2021-12-29 21:44:13', '2021-09-03 16:37:07', '2021-12-27 16:37:09', '2021-12-02 15:46:30', '2022-01-14 17:48:57']"
617 N Milpas St,True,Qsoq2TGOe59LZy7z6KbQjA,"{'Chicken Wings', 'Pizza', 'Sandwiches', 'Restaurants'}",34.4275624,-119.687371,Domino's Pizza,56,1.5,"[43, 6, 2, 2, 5]","['2022-01-15 05:49:09', '2018-09-24 02:08:39', '2019-12-22 01:43:05', '2019-03-29 05:46:24', '2021-12-13 06:24:47']"
618 Anacapa St,True,R93mEcQ1pjq7q3LzShi3ow,"{'Sandwiches', 'Nightlife', 'American (New)', 'Wine Bars', 'Tapas Bars', 'Bars', 'Restaurants'}",34.4195407,-119.6963589,"Villa Craft Beer, Wine & Kitchen",77,5.0,"[0, 1, 2, 3, 71]","[0, '2019-01-17 05:33:37', '2017-09-02 21:49:46', '2018-04-08 18:18:38', '2021-12-09 20:28:28']"
836 N Milpas St,True,RKuAfE06rDcetvOTI5MbbA,"{'Tacos', 'Mexican', 'Restaurants'}",34.430141,-119.690105,Taqueria El Buen Gusto,88,4.5,"[4, 2, 8, 25, 49]","['2021-01-28 22:04:55', '2019-03-22 03:08:35', '2021-07-27 19:58:33', '2022-01-01 18:08:13', '2022-01-19 00:21:27']"
116 Santa Barbara St,True,RRGLss4hhvZZuR0N6GQlSw,"{'Wineries', 'Wine Tasting Room', 'Vegan', 'Arts & Entertainment', 'Food', 'Mexican', 'Nightlife', 'Soul Food', 'American (Traditional)', 'Bars', 'Restaurants'}",34.4157328,-119.6884605,Nook,208,4.0,"[15, 13, 21, 45, 120]","['2021-06-01 05:16:21', '2021-12-13 03:42:15', '2020-11-18 22:15:09', '2021-09-28 14:56:03', '2021-10-28 05:30:25']"
2912 De La Vina St,True,R_8S3Iuhpzoi3nM-xq3kcw,"{'Breakfast & Brunch', 'Sandwiches', 'Coffee & Tea', 'Food', 'Juice Bars & Smoothies', 'Restaurants'}",34.4378527777,-119.7271360056,The Daily Grind,101,3.5,"[17, 8, 10, 21, 49]","['2021-11-06 19:40:43', '2021-08-08 15:15:16', '2022-01-18 17:28:38', '2021-03-17 17:02:33', '2021-11-15 16:59:14']"
2251 Las Positas Rd,True,RiOcLw__HPf_rTOTpYKnHQ,"{'Asian Fusion', 'Szechuan', 'Karaoke', 'Nightlife', 'Chinese', 'Restaurants'}",34.4265297,-119.7344374,Meet Up Chinese Cuisine,140,4.0,"[19, 5, 10, 17, 99]","['2021-12-25 04:34:59', '2021-11-11 02:29:42', '2021-12-03 07:41:35', '2021-11-26 04:57:23', '2022-01-07 23:49:31']"
1235 Olive St,True,RoGcpdwIe_k6Xhs71Wfs8Q,"{'Convenience Stores', 'Food'}",34.4294187,-119.7001372,Victoria Market,13,3.5,"[4, 2, 0, 2, 6]","['2021-04-12 08:57:11', '2018-02-06 03:47:55', 0, '2013-11-19 23:33:19', '2021-11-09 14:40:08']"
1818 Cliff Dr,False,RqmKdsCh53VCr50QHybrAQ,"{'Beer', 'Food', 'Wine & Spirits'}",34.4016567,-119.7211799,Mesa Liquors,5,1.5,"[4, 0, 0, 1, 0]","['2021-01-14 07:04:32', 0, 0, '2021-06-15 14:15:12', 0]"
335 S Milpas St,True,RtJC7xavgAxOITQyAlGCbQ,"{'Beer', 'Specialty Food', 'Health Markets', 'Coffee & Tea', 'Food', 'Grocery', 'Wine & Spirits', 'Fruits & Veggies', 'Restaurants'}",34.4181830276,-119.6738992514,Tri-County Produce Co,95,4.0,"[10, 3, 3, 21, 58]","['2021-07-04 01:00:01', '2020-08-22 19:34:11', '2019-01-19 15:24:38', '2021-02-17 20:15:11', '2021-12-28 22:18:06']"
"3815 State St, Space #G-141",True,S7Cl9gYqaC9jlw32yd4_Yg,"{'Coffee & Tea', 'Food', 'Restaurants'}",34.438351,-119.748331,Starbucks,50,3.0,"[13, 5, 8, 7, 18]","['2020-10-15 16:26:35', '2019-07-16 20:08:27', '2021-01-01 15:33:32', '2021-06-30 06:03:44', '2019-09-13 20:40:34']"
24 El Paseo,True,S8saWaZlToeNoloR2fMrAQ,"{'Wine Tasting Room', 'Beer', 'Arts & Entertainment', 'Food', 'Nightlife', 'Local Flavor', 'Wine & Spirits', 'Wine Bars', 'Bars', 'Wineries'}",34.4201076,-119.6995715,Grassini Family Vineyards,161,4.5,"[3, 4, 5, 27, 126]","['2021-11-25 02:29:40', '2021-08-03 03:16:00', '2021-11-25 04:43:48', '2021-08-09 01:34:04', '2022-01-18 19:46:58']"
605 N Milpas St,False,SMqSdSAoLP06sWUJ2uXUow,"{'Food', 'Grocery'}",34.4272219,-119.6870801,Chapala Market,16,3.0,"[4, 3, 5, 1, 3]","['2018-11-22 22:47:52', '2018-01-13 23:05:44', '2018-08-18 18:29:29', '2020-07-03 04:41:36', '2019-07-03 05:23:11']"
730 N Milpas St,True,SYHDOHRNAH-2xsw3XB5qbg,"{'Breakfast & Brunch', 'Coffee & Tea', 'Food', 'American (New)', 'Restaurants'}",34.429169291,-119.6889214927,The Shop Kitchen,1108,4.5,"[47, 55, 108, 220, 695]","['2021-10-23 21:16:39', '2021-10-13 23:13:46', '2021-12-24 03:23:18', '2022-01-01 07:21:50', '2022-01-16 21:57:40']"
230 Stearns Wharf,True,SZU9c8V2GuREDN5KgyHFJw,"{'Live/Raw Food', 'Beer', 'Seafood', 'Food', 'Nightlife', 'Beer Bar', 'Wine & Spirits', 'Bars', 'Restaurants'}",34.4087147,-119.6850187,Santa Barbara Shellfish Company,2404,4.0,"[183, 183, 323, 733, 1022]","['2022-01-07 00:17:16', '2022-01-17 06:32:35', '2022-01-01 01:05:55', '2022-01-17 22:25:47', '2022-01-19 05:21:58']"
8301 Hollister Ave,False,Slg6Ec2D7vEBRmgVUfwkzQ,"{'American (New)', 'Steakhouses', 'Seafood', 'Restaurants'}",34.4341630825,-119.9202039,Angel Oak,202,4.0,"[20, 18, 18, 36, 113]","['2021-08-18 08:11:48', '2021-10-05 04:24:19', '2022-01-16 06:07:34', '2021-12-10 20:06:30', '2021-12-22 22:11:03']"
215 Helena Ave,False,Slihcg1bmYvw-V_FUFghLg,"{'Specialty Food', 'Seafood', 'Food', 'Seafood Markets', 'Meat Shops', 'Restaurants'}",34.4147205,-119.6919534,Harbor Meat & Seafood,14,5.0,"[0, 0, 0, 2, 12]","[0, 0, 0, '2018-07-07 19:23:51', '2020-10-01 20:40:13']"
418 State St,False,Sp4HOjXy-LYV_4yy10L3jg,"{'Breakfast & Brunch', 'Nightlife', 'Beer Bar', 'Vegan', 'Bars', 'Restaurants'}",34.416541,-119.6945756,Modern Times Academy of Recreational Sciences,74,4.5,"[6, 2, 1, 8, 57]","['2021-03-13 05:06:49', '2020-01-22 06:16:39', '2019-08-11 03:15:04', '2021-06-21 06:09:14', '2021-12-03 23:17:43']"
236 E Cabrillo Blvd,False,Srt_8c1wZDcFSCsOTbJkiw,"{'Festivals', 'Beer', 'Arts & Entertainment', 'Food', 'Wine & Spirits', 'Local Flavor'}",34.4140738512,-119.6837493781,Brews at the Beach,12,4.0,"[2, 0, 3, 4, 6]","['2016-03-05 22:56:22', 0, '2015-05-23 14:29:22', '2015-04-27 21:44:01', '2014-04-15 17:40:48']"
1106 State St,True,Ss6f5v_t5Vddiaz4ZOxL0g,"{'Breakfast & Brunch', 'Modern European', 'Scandinavian', 'Food', 'Nightlife', 'Wine Bars', 'Bakeries', 'Bars', 'Restaurants'}",34.422719,-119.703303,Andersen's Danish Bakery & Restaurant,1106,4.0,"[131, 81, 114, 256, 545]","['2022-01-15 02:53:36', '2021-10-31 23:16:18', '2021-11-28 20:46:50', '2022-01-16 01:30:13', '2022-01-15 14:24:48']"
3132 State St,True,SsHMgOW3TT48Z7jeV5beqQ,"{'Restaurants', 'Barbeque', 'Korean'}",34.4405926,-119.7324099,Kimchi Korean BBQ,312,4.0,"[34, 22, 29, 77, 161]","['2021-07-18 02:55:36', '2021-10-15 02:04:00', '2021-10-24 18:55:47', '2021-12-06 02:53:37', '2021-12-10 04:11:43']"
4765 Calle Real,True,T2otvNcawDSkhykOG2tOLA,"{'Burgers', 'Breakfast & Brunch', 'American (New)', 'American (Traditional)', 'Restaurants'}",34.44335,-119.78812,IHOP,113,2.5,"[56, 14, 9, 16, 19]","['2021-10-22 18:00:27', '2021-12-17 04:10:28', '2018-04-12 04:23:19', '2019-03-30 15:38:18', '2022-01-15 06:45:43']"
417 Calle Palo Colorado,False,T97hE3STgTgpwda75h6p1w,"{'Travel Services', 'Arts & Entertainment', 'Tours', 'Food', 'Wine Tours', 'Event Planning & Services', 'Hotels & Travel', 'Wineries'}",34.445431,-119.731107,Wine Canyon Tours,152,5.0,"[3, 0, 1, 3, 148]","['2017-05-19 19:38:32', 0, '2014-04-28 03:48:03', '2019-11-11 02:52:42', '2021-08-25 01:39:06']"
210 W Carrillo St,True,T9I4G6Or3sAbyYmB7c23hw,"{'Delis', 'International Grocery', 'Ethnic Food', 'Specialty Food', 'Sandwiches', 'Food', 'Grocery', 'Restaurants'}",34.4192335,-119.7046401,Tino's Italian Grocery,96,4.5,"[5, 4, 6, 12, 69]","['2021-02-17 17:33:03', '2020-08-02 20:17:15', '2021-02-24 05:25:13', '2021-07-24 18:08:13', '2021-11-19 19:45:14']"
437 State St,True,TCWnTa69sJ3vGQsdEe3Esw,"{'Fast Food', 'Italian', 'Pizza', 'Restaurants'}",34.4165849,-119.6955333,Uncle Roccos Famous NY Pizza,317,2.5,"[127, 41, 34, 34, 95]","['2021-12-04 10:41:25', '2022-01-16 01:32:41', '2021-11-22 20:31:48', '2021-08-02 04:34:49', '2022-01-01 04:15:58']"
117 W De La Guerra St,False,TI3Rydw47yBMzY1oW2wJUg,"{'Internet Cafes', 'Coffee & Tea', 'Food', 'Nightlife', 'Bars'}",34.4178715,-119.7008868,Elsie's,152,4.0,"[11, 6, 16, 59, 66]","['2019-03-10 06:09:55', '2018-06-01 05:13:02', '2021-04-15 12:22:25', '2018-11-19 07:17:56', '2021-08-16 20:56:48']"
719 Paseo Nuevo,True,TUtf4FLtotdQDleYpRIfnw,"{'Pizza', 'Gluten-Free', 'American (New)', 'American (Traditional)', 'Salad', 'Restaurants'}",34.418802,-119.700585,California Pizza Kitchen at Santa Barbara,193,3.0,"[38, 22, 41, 46, 47]","['2021-10-10 15:56:52', '2021-11-21 23:51:41', '2021-10-22 02:27:01', '2022-01-16 02:52:42', '2021-11-12 01:39:14']"
3026 State St,True,TVX2a4bVuCE2VUIkiLdZrQ,"{'Pakistani', 'Vegetarian', 'Desserts', 'Seafood', 'Buffets', 'Food', 'Indian', 'Halal', 'Vegan', 'Salad', 'Restaurants'}",34.4406128,-119.729371,Flavor of India,501,4.0,"[59, 39, 47, 139, 228]","['2022-01-07 05:43:14', '2021-08-06 00:09:18', '2021-12-28 02:58:59', '2022-01-14 22:36:45', '2022-01-03 20:13:34']"
34 E Sola St,False,TZ-bgvsk189WywTLFrqfTQ,"{'Health & Medical', 'Food', 'Juice Bars & Smoothies'}",34.426043,-119.705782,Ascending Health Juicery,7,4.5,"[0, 1, 1, 0, 5]","[0, '2016-08-13 17:33:44', '2013-11-29 17:47:27', 0, '2020-07-05 22:51:21']"
"38 W Victoria St, Ste 104",True,T_TX4Lx03Juo4pHF5cMYuA,"{'Pizza', 'Restaurants'}",34.4236075,-119.7070539,Ca'Dario Pizzeria Veloce,34,3.0,"[10, 2, 5, 7, 10]","['2021-12-01 04:54:03', '2019-05-07 22:11:08', '2020-08-25 04:48:59', '2020-10-13 19:10:06', '2021-07-15 12:57:10']"
1435 San Andres St,True,Tc1L4BH_2pkCywkAEfCQRg,"{'Mexican', 'Burgers', 'Restaurants'}",34.4185644,-119.7161005,Burger Express,9,4.0,"[0, 1, 0, 4, 4]","[0, '2021-08-03 01:02:57', 0, '2015-01-03 05:26:52', '2021-03-30 16:52:10']"
110 W Mission St,True,ToqcYJVdnrp4fefaucm-Vg,"{'Cupcakes', 'Custom Cakes', 'Desserts', 'Food', 'Event Planning & Services', 'Caterers', 'Bakeries'}",34.4298651,-119.7164754,Lele Patisserie,19,4.5,"[2, 0, 0, 1, 17]","['2019-02-24 01:28:19', 0, 0, '2019-06-17 18:09:31', '2021-05-18 21:16:06']"
32 E Haley St,False,TvBxBjed-iX6_22SwEYEFQ,"{'Cupcakes', 'Tours', 'Food', 'Wine Tours', 'Hotels & Travel'}",34.4176801,-119.6943553,Santa Barbara Wine Country Tours,23,5.0,"[0, 0, 1, 1, 21]","[0, 0, '2017-07-02 21:08:03', '2017-11-27 00:08:03', '2020-10-13 21:08:41']"
410 N Quarantina St,False,Tw5tderBUFzj7fRLVZm2Bg,"{'Breweries', 'Food'}",34.4236787312,-119.6865684787,Pure Order Brewing,82,4.5,"[2, 2, 6, 23, 53]","['2017-06-16 02:29:11', '2016-08-21 21:53:41', '2017-07-16 21:56:17', '2019-05-24 17:15:35', '2021-04-13 00:43:14']"
50 Los Patos Way,True,TzNk1TcWLZn0JCpO83hBAA,"{'French', 'American (Traditional)', 'Restaurants', 'American (New)'}",34.4225035,-119.6580896,Stella Mare's,477,4.5,"[28, 21, 34, 109, 303]","['2021-11-29 19:30:33', '2021-05-11 17:27:46', '2021-09-12 02:11:42', '2021-12-16 23:18:54', '2021-12-22 21:27:40']"
